~Version ---------------------------------------------------
VERS. 2.0 : CWLS log ASCII Standard -VERSION 2.0
WRAP.  NO : ONE LINE PER DEPTH STEP
~Well ------------------------------------------------------
STRT.ft           17790.0 : START DEPTH
STOP.ft           20480.0 : STOP  DEPTH
STEP.ft                 1 : STEP VALUE
NULL.             -999.25 : NULL VALUE
COMP.        SAUDI ARAMCO : COMPANY NAME
WELL.         HWYH_1258_0 : WELL NAME
FLD .              HAWYAH : FIELD NAME
LOC .     189 KM FROM DMG : LOCATION
PROV.                     : PROVINCE
SRVC.               EXLOG : SERVICE COMPANY NAME
DATE.         10_MAR_2022 : DATE
UWI . W000BAB6BF1CAR8480Q : UNIQUE WELL IDENTIFIER
~Curve Information -----------------------------------------
DEPTH        .ft  : 1 Hole Depth
VOLCUT_ANHY  .%   : 2 Anhydrite
VOLCUT_ARGDOL.%   : 3 Argillaceous Dolomite
VOLCUT_ARGLS .%   : 4 Argillaceous Limestone
VOLCUT_CALDOL.%   : 5 Calcarenite Dolomite
VOLCUT_CALLS .%   : 6 Calcarenite Limestone
VOLCUT_CEMENT.%   : 7 Cement
VOLCUT_CHERT .%   : 8 Chert
VOLCUT_CLAY  .%   : 9 Clay
VOLCUT_COAL  .%   : 10 Coal_Lignite_TAR
VOLCUT_CONG  .%   : 11 Conglomerate
VOLCUT_DOL   .%   : 12 Dolomite
VOLCUT_DOLLS .%   : 13 Dolomitic Limestone
VOLCUT_GYP   .%   : 14 Gypsum
VOLCUT_HAL   .%   : 15 Halite
VOLCUT_IGN   .%   : 16 Igneous
VOLCUT_LS    .%   : 17 Limestone
VOLCUT_MARL  .%   : 18 Marl
VOLCUT_SAND  .%   : 19 Sandstone
VOLCUT_SH    .%   : 20 Shale
VOLCUT_SST   .%   : 21 Siltstone
~Params ----------------------------------------------------
~Other -----------------------------------------------------
WellWizard export LAS version 2.0 file.
~ASCII -----------------------------------------------------
# ...
 19554     0     0     0     0     0     0     0     0     0     0     0   100     0     0     0     0     0     0     0     0
 19555     0     0     0     0     0     0     0     0     0     0     0   100     0     0     0     0     0     0     0     0
 19556     0     0     0     0     0     0     0     0     0     0     0   100     0     0     0     0     0     0     0     0
 19557     0     0     0     0     0     0     0     0     0     0     0   100     0     0     0     0     0     0     0     0
 19558     0     0     0     0     0     0     0     0     0     0     0   100     0     0     0     0     0     0     0     0
 19559     0     0     0     0     0     0     0     0     0     0     0   100     0     0     0     0     0     0     0     0
 19560     0     0     0     0     0     0     0     0     0     0     0   100     0     0     0     0     0     0     0     0
 19561     0     0     0     0     0     0     0     0     0     0     0   100     0     0     0     0     0     0     0     0
 19562     0     0     0     0     0     0     0     0     0     0     0   100     0     0     0     0     0     0     0     0
 19563     0     0     0     0     0     0     0     0     0     0     0   100     0     0     0     0     0     0     0     0
 19564     0     0     0     0     0     0     0     0     0     0     0   100     0     0     0     0     0     0     0     0
 19565     0     0     0     0     0     0     0     0     0     0     0   100     0     0     0     0     0     0     0     0
 19566     0     0     0     0     0     0     0     0     0     0     0   100     0     0     0     0     0     0     0     0
 19567     0     0     0     0     0     0     0     0     0     0     0   100     0     0     0     0     0     0     0     0
 19568     0     0     0     0     0     0     0     0     0     0     0   100     0     0     0     0     0     0     0     0
 19569     0     0     0     0     0     0     0     0     0     0     0   100     0     0     0     0     0     0     0     0
 19570     0     0     0     0     0     0     0     0     0     0     0   100     0     0     0     0     0     0     0     0
 19571     0     0     0     0     0     0     0     0     0     0     0   100     0     0     0     0     0     0     0     0
 19572     0     0     0     0     0     0     0     0     0     0     0   100     0     0     0     0     0     0     0     0
 19573     0     0     0     0     0     0     0     0     0     0     0   100     0     0     0     0     0     0     0     0
 19574     0     0     0     0     0     0     0     0     0     0     0   100     0     0     0     0     0     0     0     0
 19575     0     0     0     0     0     0     0     0     0     0     0   100     0     0     0     0     0     0     0     0
 19576     0     0     0     0     0     0     0     0     0     0     0   100     0     0     0     0     0     0     0     0
 19577     0     0     0     0     0     0     0     0     0     0     0   100     0     0     0     0     0     0     0     0
 19578     0     0     0     0     0     0     0     0     0     0     0   100     0     0     0     0     0     0     0     0
 19579     0     0     0     0     0     0     0     0     0     0     0   100     0     0     0     0     0     0     0     0
 19580     0     0     0     0     0     0     0     0     0     0     0   100     0     0     0     0     0     0     0     0
 19581     0     0     0     0     0     0     0     0     0     0     0   100     0     0     0     0     0     0     0     0
 19582     0     0     0     0     0     0     0     0     0     0     0   100     0     0     0     0     0     0     0     0
 19583     0     0     0     0     0     0     0     0     0     0     0   100     0     0     0     0     0     0     0     0
 19584     0     0     0     0     0     0     0     0     0     0     0   100     0     0     0     0     0     0     0     0
 19585     0     0     0     0     0     0     0     0     0     0     0   100     0     0     0     0     0     0     0     0
 19586     0     0     0     0     0     0     0     0     0     0     0   100     0     0     0     0     0     0     0     0
 19587     0     0     0     0     0     0     0     0     0     0     0   100     0     0     0     0     0     0     0     0
 19588     0     0     0     0     0     0     0     0     0     0     0   100     0     0     0     0     0     0     0     0
 19589     0     0     0     0     0     0     0     0     0     0     0   100     0     0     0     0     0     0     0     0
 19590     0     0     0     0     0     0     0     0     0     0     0   100     0     0     0     0     0     0     0     0
 19591     0     0     0     0     0     0     0     0     0     0     0   100     0     0     0     0     0     0     0     0
 19592     0     0     0     0     0     0     0     0     0     0     0   100     0     0     0     0     0     0     0     0
 19593     0     0     0     0     0     0     0     0     0     0     0   100     0     0     0     0     0     0     0     0
 19594     0     0     0     0     0     0     0     0     0     0     0   100     0     0     0     0     0     0     0     0
 19595     0     0     0     0     0     0     0     0     0     0     0   100     0     0     0     0     0     0     0     0
 19596     0     0     0     0     0     0     0     0     0     0     0   100     0     0     0     0     0     0     0     0
 19597     0     0     0     0     0     0     0     0     0     0     0   100     0     0     0     0     0     0     0     0
 19598     0     0     0     0     0     0     0     0     0     0     0   100     0     0     0     0     0     0     0     0
 19599     0     0     0     0     0     0     0     0     0     0     0   100     0     0     0     0     0     0     0     0
 19600     0     0     0     0     0     0     0     0     0     0     0   100     0     0     0     0     0     0     0     0
 19601     0     0     0     0     0     0     0     0     0     0     0   100     0     0     0     0     0     0     0     0
 19602     0     0     0     0     0     0     0     0     0     0     0   100     0     0     0     0     0     0     0     0
 19603     0     0     0     0     0     0     0     0     0     0     0   100     0     0     0     0     0     0     0     0
 19604     0     0     0     0     0     0     0     0     0     0     0   100     0     0     0     0     0     0     0     0
 19605     0     0     0     0     0     0     0     0     0     0     0   100     0     0     0     0     0     0     0     0
 19606     0     0     0     0     0     0     0     0     0     0     0   100     0     0     0     0     0     0     0     0
 19607     0     0     0     0     0     0     0     0     0     0     0   100     0     0     0     0     0     0     0     0
 19608     0     0     0     0     0     0     0     0     0     0     0   100     0     0     0     0     0     0     0     0
 19609     0     0     0     0     0     0     0     0     0     0     0   100     0     0     0     0     0     0     0     0
 19610     0     0     0     0     0     0     0     0     0     0     0   100     0     0     0     0     0     0     0     0
 19611     0     0     0     0     0     0     0     0     0     0     0   100     0     0     0     0     0     0     0     0
 19612     0     0     0     0     0     0     0     0     0     0     0   100     0     0     0     0     0     0     0     0
 19613     0     0     0     0     0     0     0     0     0     0     0   100     0     0     0     0     0     0     0     0
 19614     0     0     0     0     0     0     0     0     0     0     0   100     0     0     0     0     0     0     0     0
 19615     0     0     0     0     0     0     0     0     0     0     0   100     0     0     0     0     0     0     0     0
 19616     0     0     0     0     0     0     0     0     0     0     0   100     0     0     0     0     0     0     0     0
