~Version ---------------------------------------------------
VERS. 2.0 : CWLS log ASCII Standard -VERSION 2.0
WRAP.  NO : ONE LINE PER DEPTH STEP
~Well ------------------------------------------------------
STRT.ft           17790.0 : START DEPTH
STOP.ft           20480.0 : STOP  DEPTH
STEP.ft                 1 : STEP VALUE
NULL.             -999.25 : NULL VALUE
COMP.        SAUDI ARAMCO : COMPANY NAME
WELL.         HWYH_1258_0 : WELL NAME
FLD .              HAWYAH : FIELD NAME
LOC .     189 KM FROM DMG : LOCATION
PROV.                     : PROVINCE
SRVC.               EXLOG : SERVICE COMPANY NAME
DATE.         10_MAR_2022 : DATE
UWI . W000BAB6BF1CAR8480Q : UNIQUE WELL IDENTIFIER
~Curve Information -----------------------------------------
DEPTH        .ft  : 1 Hole Depth
VOLCUT_ANHY  .%   : 2 Anhydrite
VOLCUT_ARGDOL.%   : 3 Argillaceous Dolomite
VOLCUT_ARGLS .%   : 4 Argillaceous Limestone
VOLCUT_CALDOL.%   : 5 Calcarenite Dolomite
VOLCUT_CALLS .%   : 6 Calcarenite Limestone
VOLCUT_CEMENT.%   : 7 Cement
VOLCUT_CHERT .%   : 8 Chert
VOLCUT_CLAY  .%   : 9 Clay
VOLCUT_COAL  .%   : 10 Coal_Lignite_TAR
VOLCUT_CONG  .%   : 11 Conglomerate
VOLCUT_DOL   .%   : 12 Dolomite
VOLCUT_DOLLS .%   : 13 Dolomitic Limestone
VOLCUT_GYP   .%   : 14 Gypsum
VOLCUT_HAL   .%   : 15 Halite
VOLCUT_IGN   .%   : 16 Igneous
VOLCUT_LS    .%   : 17 Limestone
VOLCUT_MARL  .%   : 18 Marl
VOLCUT_SAND  .%   : 19 Sandstone
VOLCUT_SH    .%   : 20 Shale
VOLCUT_SST   .%   : 21 Siltstone
~Params ----------------------------------------------------
~Other -----------------------------------------------------
WellWizard export LAS version 2.0 file.
~ASCII -----------------------------------------------------
# ...
 18483     0     0     0     0     0     0     0     0     0     0     0   100     0     0     0     0     0     0     0     0
 18484     0     0     0     0     0     0     0     0     0     0     0   100     0     0     0     0     0     0     0     0
 18485     0     0     0     0     0     0     0     0     0     0     0   100     0     0     0     0     0     0     0     0
 18486     0     0     0     0     0     0     0     0     0     0     0   100     0     0     0     0     0     0     0     0
 18487     0     0     0     0     0     0     0     0     0     0     0   100     0     0     0     0     0     0     0     0
 18488     0     0     0     0     0     0     0     0     0     0     0   100     0     0     0     0     0     0     0     0
 18489     0     0     0     0     0     0     0     0     0     0     0   100     0     0     0     0     0     0     0     0
 18490     0     0     0     0     0     0     0     0     0     0     0   100     0     0     0     0     0     0     0     0
 18491     0     0     0     0     0     0     0     0     0     0     0   100     0     0     0     0     0     0     0     0
 18492     0     0     0     0     0     0     0     0     0     0     0   100     0     0     0     0     0     0     0     0
 18493     0     0     0     0     0     0     0     0     0     0     0   100     0     0     0     0     0     0     0     0
 18494     0     0     0     0     0     0     0     0     0     0     0   100     0     0     0     0     0     0     0     0
 18495     0     0     0     0     0     0     0     0     0     0     0   100     0     0     0     0     0     0     0     0
 18496     0     0     0     0     0     0     0     0     0     0     0   100     0     0     0     0     0     0     0     0
 18497     0     0     0     0     0     0     0     0     0     0     0   100     0     0     0     0     0     0     0     0
 18498     0     0     0     0     0     0     0     0     0     0     0   100     0     0     0     0     0     0     0     0
 18499     0     0     0     0     0     0     0     0     0     0     0   100     0     0     0     0     0     0     0     0
 18500     0     0     0     0     0     0     0     0     0     0     0   100     0     0     0     0     0     0     0     0
 18501     0     0     0     0     0     0     0     0     0     0     0   100     0     0     0     0     0     0     0     0
 18502     0     0     0     0     0     0     0     0     0     0     0   100     0     0     0     0     0     0     0     0
 18503     0     0     0     0     0     0     0     0     0     0     0   100     0     0     0     0     0     0     0     0
 18504     0     0     0     0     0     0     0     0     0     0     0   100     0     0     0     0     0     0     0     0
 18505     0     0     0     0     0     0     0     0     0     0     0   100     0     0     0     0     0     0     0     0
 18506     0     0     0     0     0     0     0     0     0     0     0   100     0     0     0     0     0     0     0     0
 18507     0     0     0     0     0     0     0     0     0     0     0   100     0     0     0     0     0     0     0     0
 18508     0     0     0     0     0     0     0     0     0     0     0   100     0     0     0     0     0     0     0     0
 18509     0     0     0     0     0     0     0     0     0     0     0   100     0     0     0     0     0     0     0     0
 18510     0     0     0     0     0     0     0     0     0     0     0   100     0     0     0     0     0     0     0     0
 18511     0     0     0     0     0     0     0     0     0     0     0   100     0     0     0     0     0     0     0     0
 18512     0     0     0     0     0     0     0     0     0     0     0   100     0     0     0     0     0     0     0     0
 18513     0     0     0     0     0     0     0     0     0     0     0   100     0     0     0     0     0     0     0     0
 18514     0     0     0     0     0     0     0     0     0     0     0   100     0     0     0     0     0     0     0     0
 18515     0     0     0     0     0     0     0     0     0     0     0   100     0     0     0     0     0     0     0     0
 18516     0     0     0     0     0     0     0     0     0     0     0   100     0     0     0     0     0     0     0     0
 18517     0     0     0     0     0     0     0     0     0     0     0   100     0     0     0     0     0     0     0     0
 18518     0     0     0     0     0     0     0     0     0     0     0   100     0     0     0     0     0     0     0     0
 18519     0     0     0     0     0     0     0     0     0     0     0   100     0     0     0     0     0     0     0     0
 18520     0     0     0     0     0     0     0     0     0     0     0   100     0     0     0     0     0     0     0     0
 18521     0     0     0     0     0     0     0     0     0     0     0   100     0     0     0     0     0     0     0     0
 18522     0     0     0     0     0     0     0     0     0     0     0   100     0     0     0     0     0     0     0     0
 18523     0     0     0     0     0     0     0     0     0     0     0   100     0     0     0     0     0     0     0     0
 18524     0     0     0     0     0     0     0     0     0     0     0   100     0     0     0     0     0     0     0     0
 18525     0     0     0     0     0     0     0     0     0     0     0   100     0     0     0     0     0     0     0     0
 18526     0     0     0     0     0     0     0     0     0     0     0   100     0     0     0     0     0     0     0     0
 18527     0     0     0     0     0     0     0     0     0     0     0   100     0     0     0     0     0     0     0     0
 18528     0     0     0     0     0     0     0     0     0     0     0   100     0     0     0     0     0     0     0     0
 18529     0     0     0     0     0     0     0     0     0     0     0   100     0     0     0     0     0     0     0     0
 18530     0     0     0     0     0     0     0     0     0     0     0   100     0     0     0     0     0     0     0     0
 18531     0     0     0     0     0     0     0     0     0     0     0   100     0     0     0     0     0     0     0     0
 18532     0     0     0     0     0     0     0     0     0     0     0   100     0     0     0     0     0     0     0     0
 18533     0     0     0     0     0     0     0     0     0     0     0   100     0     0     0     0     0     0     0     0
 18534     0     0     0     0     0     0     0     0     0     0     0   100     0     0     0     0     0     0     0     0
 18535     0     0     0     0     0     0     0     0     0     0     0   100     0     0     0     0     0     0     0     0
 18536     0     0     0     0     0     0     0     0     0     0     0   100     0     0     0     0     0     0     0     0
 18537     0     0     0     0     0     0     0     0     0     0     0   100     0     0     0     0     0     0     0     0
 18538     0     0     0     0     0     0     0     0     0     0     0   100     0     0     0     0     0     0     0     0
 18539     0     0     0     0     0     0     0     0     0     0     0   100     0     0     0     0     0     0     0     0
 18540     0     0     0     0     0     0     0     0     0     0     0   100     0     0     0     0     0     0     0     0
 18541     0     0     0     0     0     0     0     0     0     0     0   100     0     0     0     0     0     0     0     0
 18542     0     0     0     0     0     0     0     0     0     0     0   100     0     0     0     0     0     0     0     0
 18543     0     0     0     0     0     0     0     0     0     0     0   100     0     0     0     0     0     0     0     0
 18544     0     0     0     0     0     0     0     0     0     0     0   100     0     0     0     0     0     0     0     0
 18545     0     0     0     0     0     0     0     0     0     0     0   100     0     0     0     0     0     0     0     0
