~Version ---------------------------------------------------
VERS. 2.0 : CWLS log ASCII Standard -VERSION 2.0
WRAP.  NO : ONE LINE PER DEPTH STEP
~Well ------------------------------------------------------
STRT.ft           17790.0 : START DEPTH
STOP.ft           20480.0 : STOP  DEPTH
STEP.ft                 1 : STEP VALUE
NULL.             -999.25 : NULL VALUE
COMP.        SAUDI ARAMCO : COMPANY NAME
WELL.         HWYH_1258_0 : WELL NAME
FLD .              HAWYAH : FIELD NAME
LOC .     189 KM FROM DMG : LOCATION
PROV.                     : PROVINCE
SRVC.               EXLOG : SERVICE COMPANY NAME
DATE.         10_MAR_2022 : DATE
UWI . W000BAB6BF1CAR8480Q : UNIQUE WELL IDENTIFIER
~Curve Information -----------------------------------------
DEPTH        .ft  : 1 Hole Depth
VOLCUT_ANHY  .%   : 2 Anhydrite
VOLCUT_ARGDOL.%   : 3 Argillaceous Dolomite
VOLCUT_ARGLS .%   : 4 Argillaceous Limestone
VOLCUT_CALDOL.%   : 5 Calcarenite Dolomite
VOLCUT_CALLS .%   : 6 Calcarenite Limestone
VOLCUT_CEMENT.%   : 7 Cement
VOLCUT_CHERT .%   : 8 Chert
VOLCUT_CLAY  .%   : 9 Clay
VOLCUT_COAL  .%   : 10 Coal_Lignite_TAR
VOLCUT_CONG  .%   : 11 Conglomerate
VOLCUT_DOL   .%   : 12 Dolomite
VOLCUT_DOLLS .%   : 13 Dolomitic Limestone
VOLCUT_GYP   .%   : 14 Gypsum
VOLCUT_HAL   .%   : 15 Halite
VOLCUT_IGN   .%   : 16 Igneous
VOLCUT_LS    .%   : 17 Limestone
VOLCUT_MARL  .%   : 18 Marl
VOLCUT_SAND  .%   : 19 Sandstone
VOLCUT_SH    .%   : 20 Shale
VOLCUT_SST   .%   : 21 Siltstone
~Params ----------------------------------------------------
~Other -----------------------------------------------------
WellWizard export LAS version 2.0 file.
~ASCII -----------------------------------------------------
# ...
 19050     0     0     0     0     0     0     0     0     0     0     0   100     0     0     0     0     0     0     0     0
 19051     0     0     0     0     0     0     0     0     0     0     0   100     0     0     0     0     0     0     0     0
 19052     0     0     0     0     0     0     0     0     0     0     0   100     0     0     0     0     0     0     0     0
 19053     0     0     0     0     0     0     0     0     0     0     0   100     0     0     0     0     0     0     0     0
 19054     0     0     0     0     0     0     0     0     0     0     0   100     0     0     0     0     0     0     0     0
 19055     0     0     0     0     0     0     0     0     0     0     0   100     0     0     0     0     0     0     0     0
 19056     0     0     0     0     0     0     0     0     0     0     0   100     0     0     0     0     0     0     0     0
 19057     0     0     0     0     0     0     0     0     0     0     0   100     0     0     0     0     0     0     0     0
 19058     0     0     0     0     0     0     0     0     0     0     0   100     0     0     0     0     0     0     0     0
 19059     0     0     0     0     0     0     0     0     0     0     0   100     0     0     0     0     0     0     0     0
 19060     0     0     0     0     0     0     0     0     0     0     0   100     0     0     0     0     0     0     0     0
 19061     0     0     0     0     0     0     0     0     0     0     0   100     0     0     0     0     0     0     0     0
 19062     0     0     0     0     0     0     0     0     0     0     0   100     0     0     0     0     0     0     0     0
 19063     0     0     0     0     0     0     0     0     0     0     0   100     0     0     0     0     0     0     0     0
 19064     0     0     0     0     0     0     0     0     0     0     0   100     0     0     0     0     0     0     0     0
 19065     0     0     0     0     0     0     0     0     0     0     0   100     0     0     0     0     0     0     0     0
 19066     0     0     0     0     0     0     0     0     0     0     0   100     0     0     0     0     0     0     0     0
 19067     0     0     0     0     0     0     0     0     0     0     0   100     0     0     0     0     0     0     0     0
 19068     0     0     0     0     0     0     0     0     0     0     0   100     0     0     0     0     0     0     0     0
 19069     0     0     0     0     0     0     0     0     0     0     0   100     0     0     0     0     0     0     0     0
 19070     0     0     0     0     0     0     0     0     0     0     0   100     0     0     0     0     0     0     0     0
 19071     0     0     0     0     0     0     0     0     0     0     0   100     0     0     0     0     0     0     0     0
 19072     0     0     0     0     0     0     0     0     0     0     0   100     0     0     0     0     0     0     0     0
 19073     0     0     0     0     0     0     0     0     0     0     0   100     0     0     0     0     0     0     0     0
 19074     0     0     0     0     0     0     0     0     0     0     0   100     0     0     0     0     0     0     0     0
 19075     0     0     0     0     0     0     0     0     0     0     0   100     0     0     0     0     0     0     0     0
 19076     0     0     0     0     0     0     0     0     0     0     0   100     0     0     0     0     0     0     0     0
 19077     0     0     0     0     0     0     0     0     0     0     0   100     0     0     0     0     0     0     0     0
 19078     0     0     0     0     0     0     0     0     0     0     0   100     0     0     0     0     0     0     0     0
 19079     0     0     0     0     0     0     0     0     0     0     0   100     0     0     0     0     0     0     0     0
 19080     0     0     0     0     0     0     0     0     0     0     0   100     0     0     0     0     0     0     0     0
 19081     0     0     0     0     0     0     0     0     0     0     0   100     0     0     0     0     0     0     0     0
 19082     0     0     0     0     0     0     0     0     0     0     0   100     0     0     0     0     0     0     0     0
 19083     0     0     0     0     0     0     0     0     0     0     0   100     0     0     0     0     0     0     0     0
 19084     0     0     0     0     0     0     0     0     0     0     0   100     0     0     0     0     0     0     0     0
 19085     0     0     0     0     0     0     0     0     0     0     0   100     0     0     0     0     0     0     0     0
 19086     0     0     0     0     0     0     0     0     0     0     0   100     0     0     0     0     0     0     0     0
 19087     0     0     0     0     0     0     0     0     0     0     0   100     0     0     0     0     0     0     0     0
 19088     0     0     0     0     0     0     0     0     0     0     0   100     0     0     0     0     0     0     0     0
 19089     0     0     0     0     0     0     0     0     0     0     0   100     0     0     0     0     0     0     0     0
 19090     0     0     0     0     0     0     0     0     0     0     0   100     0     0     0     0     0     0     0     0
 19091     0     0     0     0     0     0     0     0     0     0     0   100     0     0     0     0     0     0     0     0
 19092     0     0     0     0     0     0     0     0     0     0     0   100     0     0     0     0     0     0     0     0
 19093     0     0     0     0     0     0     0     0     0     0     0   100     0     0     0     0     0     0     0     0
 19094     0     0     0     0     0     0     0     0     0     0     0   100     0     0     0     0     0     0     0     0
 19095     0     0     0     0     0     0     0     0     0     0     0   100     0     0     0     0     0     0     0     0
 19096     0     0     0     0     0     0     0     0     0     0     0   100     0     0     0     0     0     0     0     0
 19097     0     0     0     0     0     0     0     0     0     0     0   100     0     0     0     0     0     0     0     0
 19098     0     0     0     0     0     0     0     0     0     0     0   100     0     0     0     0     0     0     0     0
 19099     0     0     0     0     0     0     0     0     0     0     0   100     0     0     0     0     0     0     0     0
 19100     0     0     0     0     0     0     0     0     0     0     0   100     0     0     0     0     0     0     0     0
 19101     0     0     0     0     0     0     0     0     0     0     0   100     0     0     0     0     0     0     0     0
 19102     0     0     0     0     0     0     0     0     0     0     0   100     0     0     0     0     0     0     0     0
 19103     0     0     0     0     0     0     0     0     0     0     0   100     0     0     0     0     0     0     0     0
 19104     0     0     0     0     0     0     0     0     0     0     0   100     0     0     0     0     0     0     0     0
 19105     0     0     0     0     0     0     0     0     0     0     0   100     0     0     0     0     0     0     0     0
 19106     0     0     0     0     0     0     0     0     0     0     0   100     0     0     0     0     0     0     0     0
 19107     0     0     0     0     0     0     0     0     0     0     0   100     0     0     0     0     0     0     0     0
 19108     0     0     0     0     0     0     0     0     0     0     0   100     0     0     0     0     0     0     0     0
 19109     0     0     0     0     0     0     0     0     0     0     0   100     0     0     0     0     0     0     0     0
 19110     0     0     0     0     0     0     0     0     0     0     0   100     0     0     0     0     0     0     0     0
 19111     0     0     0     0     0     0     0     0     0     0     0   100     0     0     0     0     0     0     0     0
 19112     0     0     0     0     0     0     0     0     0     0     0   100     0     0     0     0     0     0     0     0
