~Version ---------------------------------------------------
VERS. 2.0 : CWLS log ASCII Standard -VERSION 2.0
WRAP.  NO : ONE LINE PER DEPTH STEP
~Well ------------------------------------------------------
STRT.ft           17790.0 : START DEPTH
STOP.ft           20480.0 : STOP  DEPTH
STEP.ft                 1 : STEP VALUE
NULL.             -999.25 : NULL VALUE
COMP.        SAUDI ARAMCO : COMPANY NAME
WELL.         HWYH_1258_0 : WELL NAME
FLD .              HAWYAH : FIELD NAME
LOC .     189 KM FROM DMG : LOCATION
PROV.                     : PROVINCE
SRVC.               EXLOG : SERVICE COMPANY NAME
DATE.         10_MAR_2022 : DATE
UWI . W000BAB6BF1CAR8480Q : UNIQUE WELL IDENTIFIER
~Curve Information -----------------------------------------
DEPTH        .ft  : 1 Hole Depth
VOLCUT_ANHY  .%   : 2 Anhydrite
VOLCUT_ARGDOL.%   : 3 Argillaceous Dolomite
VOLCUT_ARGLS .%   : 4 Argillaceous Limestone
VOLCUT_CALDOL.%   : 5 Calcarenite Dolomite
VOLCUT_CALLS .%   : 6 Calcarenite Limestone
VOLCUT_CEMENT.%   : 7 Cement
VOLCUT_CHERT .%   : 8 Chert
VOLCUT_CLAY  .%   : 9 Clay
VOLCUT_COAL  .%   : 10 Coal_Lignite_TAR
VOLCUT_CONG  .%   : 11 Conglomerate
VOLCUT_DOL   .%   : 12 Dolomite
VOLCUT_DOLLS .%   : 13 Dolomitic Limestone
VOLCUT_GYP   .%   : 14 Gypsum
VOLCUT_HAL   .%   : 15 Halite
VOLCUT_IGN   .%   : 16 Igneous
VOLCUT_LS    .%   : 17 Limestone
VOLCUT_MARL  .%   : 18 Marl
VOLCUT_SAND  .%   : 19 Sandstone
VOLCUT_SH    .%   : 20 Shale
VOLCUT_SST   .%   : 21 Siltstone
~Params ----------------------------------------------------
~Other -----------------------------------------------------
WellWizard export LAS version 2.0 file.
~ASCII -----------------------------------------------------
# ...
 18861     0     0     0     0     0     0     0     0     0     0     0   100     0     0     0     0     0     0     0     0
 18862     0     0     0     0     0     0     0     0     0     0     0   100     0     0     0     0     0     0     0     0
 18863     0     0     0     0     0     0     0     0     0     0     0   100     0     0     0     0     0     0     0     0
 18864     0     0     0     0     0     0     0     0     0     0     0   100     0     0     0     0     0     0     0     0
 18865     0     0     0     0     0     0     0     0     0     0     0   100     0     0     0     0     0     0     0     0
 18866     0     0     0     0     0     0     0     0     0     0     0   100     0     0     0     0     0     0     0     0
 18867     0     0     0     0     0     0     0     0     0     0     0   100     0     0     0     0     0     0     0     0
 18868     0     0     0     0     0     0     0     0     0     0     0   100     0     0     0     0     0     0     0     0
 18869     0     0     0     0     0     0     0     0     0     0     0   100     0     0     0     0     0     0     0     0
 18870     0     0     0     0     0     0     0     0     0     0     0   100     0     0     0     0     0     0     0     0
 18871     0     0     0     0     0     0     0     0     0     0     0   100     0     0     0     0     0     0     0     0
 18872     0     0     0     0     0     0     0     0     0     0     0   100     0     0     0     0     0     0     0     0
 18873     0     0     0     0     0     0     0     0     0     0     0   100     0     0     0     0     0     0     0     0
 18874     0     0     0     0     0     0     0     0     0     0     0   100     0     0     0     0     0     0     0     0
 18875     0     0     0     0     0     0     0     0     0     0     0   100     0     0     0     0     0     0     0     0
 18876     0     0     0     0     0     0     0     0     0     0     0   100     0     0     0     0     0     0     0     0
 18877     0     0     0     0     0     0     0     0     0     0     0   100     0     0     0     0     0     0     0     0
 18878     0     0     0     0     0     0     0     0     0     0     0   100     0     0     0     0     0     0     0     0
 18879     0     0     0     0     0     0     0     0     0     0     0   100     0     0     0     0     0     0     0     0
 18880     0     0     0     0     0     0     0     0     0     0     0   100     0     0     0     0     0     0     0     0
 18881     0     0     0     0     0     0     0     0     0     0     0   100     0     0     0     0     0     0     0     0
 18882     0     0     0     0     0     0     0     0     0     0     0   100     0     0     0     0     0     0     0     0
 18883     0     0     0     0     0     0     0     0     0     0     0   100     0     0     0     0     0     0     0     0
 18884     0     0     0     0     0     0     0     0     0     0     0   100     0     0     0     0     0     0     0     0
 18885     0     0     0     0     0     0     0     0     0     0     0   100     0     0     0     0     0     0     0     0
 18886     0     0     0     0     0     0     0     0     0     0     0   100     0     0     0     0     0     0     0     0
 18887     0     0     0     0     0     0     0     0     0     0     0   100     0     0     0     0     0     0     0     0
 18888     0     0     0     0     0     0     0     0     0     0     0   100     0     0     0     0     0     0     0     0
 18889     0     0     0     0     0     0     0     0     0     0     0   100     0     0     0     0     0     0     0     0
 18890     0     0     0     0     0     0     0     0     0     0     0   100     0     0     0     0     0     0     0     0
 18891     0     0     0     0     0     0     0     0     0     0     0   100     0     0     0     0     0     0     0     0
 18892     0     0     0     0     0     0     0     0     0     0     0   100     0     0     0     0     0     0     0     0
 18893     0     0     0     0     0     0     0     0     0     0     0   100     0     0     0     0     0     0     0     0
 18894     0     0     0     0     0     0     0     0     0     0     0   100     0     0     0     0     0     0     0     0
 18895     0     0     0     0     0     0     0     0     0     0     0   100     0     0     0     0     0     0     0     0
 18896     0     0     0     0     0     0     0     0     0     0     0   100     0     0     0     0     0     0     0     0
 18897     0     0     0     0     0     0     0     0     0     0     0   100     0     0     0     0     0     0     0     0
 18898     0     0     0     0     0     0     0     0     0     0     0   100     0     0     0     0     0     0     0     0
 18899     0     0     0     0     0     0     0     0     0     0     0   100     0     0     0     0     0     0     0     0
 18900     0     0     0     0     0     0     0     0     0     0     0   100     0     0     0     0     0     0     0     0
 18901     0     0     0     0     0     0     0     0     0     0     0   100     0     0     0     0     0     0     0     0
 18902     0     0     0     0     0     0     0     0     0     0     0   100     0     0     0     0     0     0     0     0
 18903     0     0     0     0     0     0     0     0     0     0     0   100     0     0     0     0     0     0     0     0
 18904     0     0     0     0     0     0     0     0     0     0     0   100     0     0     0     0     0     0     0     0
 18905     0     0     0     0     0     0     0     0     0     0     0   100     0     0     0     0     0     0     0     0
 18906     0     0     0     0     0     0     0     0     0     0     0   100     0     0     0     0     0     0     0     0
 18907     0     0     0     0     0     0     0     0     0     0     0   100     0     0     0     0     0     0     0     0
 18908     0     0     0     0     0     0     0     0     0     0     0   100     0     0     0     0     0     0     0     0
 18909     0     0     0     0     0     0     0     0     0     0     0   100     0     0     0     0     0     0     0     0
 18910     0     0     0     0     0     0     0     0     0     0     0   100     0     0     0     0     0     0     0     0
 18911     0     0     0     0     0     0     0     0     0     0     0   100     0     0     0     0     0     0     0     0
 18912     0     0     0     0     0     0     0     0     0     0     0   100     0     0     0     0     0     0     0     0
 18913     0     0     0     0     0     0     0     0     0     0     0   100     0     0     0     0     0     0     0     0
 18914     0     0     0     0     0     0     0     0     0     0     0   100     0     0     0     0     0     0     0     0
 18915     0     0     0     0     0     0     0     0     0     0     0   100     0     0     0     0     0     0     0     0
 18916     0     0     0     0     0     0     0     0     0     0     0   100     0     0     0     0     0     0     0     0
 18917     0     0     0     0     0     0     0     0     0     0     0   100     0     0     0     0     0     0     0     0
 18918     0     0     0     0     0     0     0     0     0     0     0   100     0     0     0     0     0     0     0     0
 18919     0     0     0     0     0     0     0     0     0     0     0   100     0     0     0     0     0     0     0     0
 18920     0     0     0     0     0     0     0     0     0     0     0   100     0     0     0     0     0     0     0     0
 18921     0     0     0     0     0     0     0     0     0     0     0   100     0     0     0     0     0     0     0     0
 18922     0     0     0     0     0     0     0     0     0     0     0   100     0     0     0     0     0     0     0     0
 18923     0     0     0     0     0     0     0     0     0     0     0   100     0     0     0     0     0     0     0     0
