~Version ---------------------------------------------------
VERS. 2.0 : CWLS log ASCII Standard -VERSION 2.0
WRAP.  NO : ONE LINE PER DEPTH STEP
~Well ------------------------------------------------------
STRT.ft           17790.0 : START DEPTH
STOP.ft           20480.0 : STOP  DEPTH
STEP.ft                 1 : STEP VALUE
NULL.             -999.25 : NULL VALUE
COMP.        SAUDI ARAMCO : COMPANY NAME
WELL.         HWYH_1258_0 : WELL NAME
FLD .              HAWYAH : FIELD NAME
LOC .     189 KM FROM DMG : LOCATION
PROV.                     : PROVINCE
SRVC.               EXLOG : SERVICE COMPANY NAME
DATE.         10_MAR_2022 : DATE
UWI . W000BAB6BF1CAR8480Q : UNIQUE WELL IDENTIFIER
~Curve Information -----------------------------------------
DEPTH        .ft  : 1 Hole Depth
VOLCUT_ANHY  .%   : 2 Anhydrite
VOLCUT_ARGDOL.%   : 3 Argillaceous Dolomite
VOLCUT_ARGLS .%   : 4 Argillaceous Limestone
VOLCUT_CALDOL.%   : 5 Calcarenite Dolomite
VOLCUT_CALLS .%   : 6 Calcarenite Limestone
VOLCUT_CEMENT.%   : 7 Cement
VOLCUT_CHERT .%   : 8 Chert
VOLCUT_CLAY  .%   : 9 Clay
VOLCUT_COAL  .%   : 10 Coal_Lignite_TAR
VOLCUT_CONG  .%   : 11 Conglomerate
VOLCUT_DOL   .%   : 12 Dolomite
VOLCUT_DOLLS .%   : 13 Dolomitic Limestone
VOLCUT_GYP   .%   : 14 Gypsum
VOLCUT_HAL   .%   : 15 Halite
VOLCUT_IGN   .%   : 16 Igneous
VOLCUT_LS    .%   : 17 Limestone
VOLCUT_MARL  .%   : 18 Marl
VOLCUT_SAND  .%   : 19 Sandstone
VOLCUT_SH    .%   : 20 Shale
VOLCUT_SST   .%   : 21 Siltstone
~Params ----------------------------------------------------
~Other -----------------------------------------------------
WellWizard export LAS version 2.0 file.
~ASCII -----------------------------------------------------
# ...
 20247     0     0     0     0     0     0     0     0     0     0     0   100     0     0     0     0     0     0     0     0
 20248     0     0     0     0     0     0     0     0     0     0     0   100     0     0     0     0     0     0     0     0
 20249     0     0     0     0     0     0     0     0     0     0     0   100     0     0     0     0     0     0     0     0
 20250     0     0     0     0     0     0     0     0     0     0     0   100     0     0     0     0     0     0     0     0
 20251     0     0     0     0     0     0     0     0     0     0     0   100     0     0     0     0     0     0     0     0
 20252     0     0     0     0     0     0     0     0     0     0     0   100     0     0     0     0     0     0     0     0
 20253     0     0     0     0     0     0     0     0     0     0     0   100     0     0     0     0     0     0     0     0
 20254     0     0     0     0     0     0     0     0     0     0     0   100     0     0     0     0     0     0     0     0
 20255     0     0     0     0     0     0     0     0     0     0     0   100     0     0     0     0     0     0     0     0
 20256     0     0     0     0     0     0     0     0     0     0     0   100     0     0     0     0     0     0     0     0
 20257     0     0     0     0     0     0     0     0     0     0     0   100     0     0     0     0     0     0     0     0
 20258     0     0     0     0     0     0     0     0     0     0     0   100     0     0     0     0     0     0     0     0
 20259     0     0     0     0     0     0     0     0     0     0     0   100     0     0     0     0     0     0     0     0
 20260     0     0     0     0     0     0     0     0     0     0     0   100     0     0     0     0     0     0     0     0
 20261     0     0     0     0     0     0     0     0     0     0     0   100     0     0     0     0     0     0     0     0
 20262     0     0     0     0     0     0     0     0     0     0     0   100     0     0     0     0     0     0     0     0
 20263     0     0     0     0     0     0     0     0     0     0     0   100     0     0     0     0     0     0     0     0
 20264     0     0     0     0     0     0     0     0     0     0     0   100     0     0     0     0     0     0     0     0
 20265     0     0     0     0     0     0     0     0     0     0     0   100     0     0     0     0     0     0     0     0
 20266     0     0     0     0     0     0     0     0     0     0     0   100     0     0     0     0     0     0     0     0
 20267     0     0     0     0     0     0     0     0     0     0     0   100     0     0     0     0     0     0     0     0
 20268     0     0     0     0     0     0     0     0     0     0     0   100     0     0     0     0     0     0     0     0
 20269     0     0     0     0     0     0     0     0     0     0     0   100     0     0     0     0     0     0     0     0
 20270     0     0     0     0     0     0     0     0     0     0     0   100     0     0     0     0     0     0     0     0
 20271     0     0     0     0     0     0     0     0     0     0     0   100     0     0     0     0     0     0     0     0
 20272     0     0     0     0     0     0     0     0     0     0     0   100     0     0     0     0     0     0     0     0
 20273     0     0     0     0     0     0     0     0     0     0     0   100     0     0     0     0     0     0     0     0
 20274     0     0     0     0     0     0     0     0     0     0     0   100     0     0     0     0     0     0     0     0
 20275     0     0     0     0     0     0     0     0     0     0     0   100     0     0     0     0     0     0     0     0
 20276     0     0     0     0     0     0     0     0     0     0     0   100     0     0     0     0     0     0     0     0
 20277     0     0     0     0     0     0     0     0     0     0     0   100     0     0     0     0     0     0     0     0
 20278     0     0     0     0     0     0     0     0     0     0     0   100     0     0     0     0     0     0     0     0
 20279     0     0     0     0     0     0     0     0     0     0     0   100     0     0     0     0     0     0     0     0
 20280     0     0     0     0     0     0     0     0     0     0     0   100     0     0     0     0     0     0     0     0
 20281     0     0     0     0     0     0     0     0     0     0     0   100     0     0     0     0     0     0     0     0
 20282     0     0     0     0     0     0     0     0     0     0     0   100     0     0     0     0     0     0     0     0
 20283     0     0     0     0     0     0     0     0     0     0     0   100     0     0     0     0     0     0     0     0
 20284     0     0     0     0     0     0     0     0     0     0     0   100     0     0     0     0     0     0     0     0
 20285     0     0     0     0     0     0     0     0     0     0     0   100     0     0     0     0     0     0     0     0
 20286     0     0     0     0     0     0     0     0     0     0     0   100     0     0     0     0     0     0     0     0
 20287     0     0     0     0     0     0     0     0     0     0     0   100     0     0     0     0     0     0     0     0
 20288     0     0     0     0     0     0     0     0     0     0     0   100     0     0     0     0     0     0     0     0
 20289     0     0     0     0     0     0     0     0     0     0     0   100     0     0     0     0     0     0     0     0
 20290     0     0     0     0     0     0     0     0     0     0     0   100     0     0     0     0     0     0     0     0
 20291     0     0     0     0     0     0     0     0     0     0     0   100     0     0     0     0     0     0     0     0
 20292     0     0     0     0     0     0     0     0     0     0     0   100     0     0     0     0     0     0     0     0
 20293     0     0     0     0     0     0     0     0     0     0     0   100     0     0     0     0     0     0     0     0
 20294     0     0     0     0     0     0     0     0     0     0     0   100     0     0     0     0     0     0     0     0
 20295     0     0     0     0     0     0     0     0     0     0     0   100     0     0     0     0     0     0     0     0
 20296     0     0     0     0     0     0     0     0     0     0     0   100     0     0     0     0     0     0     0     0
 20297     0     0     0     0     0     0     0     0     0     0     0   100     0     0     0     0     0     0     0     0
 20298     0     0     0     0     0     0     0     0     0     0     0   100     0     0     0     0     0     0     0     0
 20299     0     0     0     0     0     0     0     0     0     0     0   100     0     0     0     0     0     0     0     0
 20300     0     0     0     0     0     0     0     0     0     0     0   100     0     0     0     0     0     0     0     0
 20301     0     0     0     0     0     0     0     0     0     0     0   100     0     0     0     0     0     0     0     0
 20302     0     0     0     0     0     0     0     0     0     0     0   100     0     0     0     0     0     0     0     0
 20303     0     0     0     0     0     0     0     0     0     0     0   100     0     0     0     0     0     0     0     0
 20304     0     0     0     0     0     0     0     0     0     0     0   100     0     0     0     0     0     0     0     0
 20305     0     0     0     0     0     0     0     0     0     0     0   100     0     0     0     0     0     0     0     0
 20306     0     0     0     0     0     0     0     0     0     0     0   100     0     0     0     0     0     0     0     0
 20307     0     0     0     0     0     0     0     0     0     0     0   100     0     0     0     0     0     0     0     0
 20308     0     0     0     0     0     0     0     0     0     0     0   100     0     0     0     0     0     0     0     0
 20309     0     0     0     0     0     0     0     0     0     0     0   100     0     0     0     0     0     0     0     0
