~Version ---------------------------------------------------
VERS. 2.0 : CWLS log ASCII Standard -VERSION 2.0
WRAP.  NO : ONE LINE PER DEPTH STEP
~Well ------------------------------------------------------
STRT.ft           17790.0 : START DEPTH
STOP.ft           20480.0 : STOP  DEPTH
STEP.ft                 1 : STEP VALUE
NULL.             -999.25 : NULL VALUE
COMP.        SAUDI ARAMCO : COMPANY NAME
WELL.         HWYH_1258_0 : WELL NAME
FLD .              HAWYAH : FIELD NAME
LOC .     189 KM FROM DMG : LOCATION
PROV.                     : PROVINCE
SRVC.               EXLOG : SERVICE COMPANY NAME
DATE.         10_MAR_2022 : DATE
UWI . W000BAB6BF1CAR8480Q : UNIQUE WELL IDENTIFIER
~Curve Information -----------------------------------------
DEPTH        .ft  : 1 Hole Depth
VOLCUT_ANHY  .%   : 2 Anhydrite
VOLCUT_ARGDOL.%   : 3 Argillaceous Dolomite
VOLCUT_ARGLS .%   : 4 Argillaceous Limestone
VOLCUT_CALDOL.%   : 5 Calcarenite Dolomite
VOLCUT_CALLS .%   : 6 Calcarenite Limestone
VOLCUT_CEMENT.%   : 7 Cement
VOLCUT_CHERT .%   : 8 Chert
VOLCUT_CLAY  .%   : 9 Clay
VOLCUT_COAL  .%   : 10 Coal_Lignite_TAR
VOLCUT_CONG  .%   : 11 Conglomerate
VOLCUT_DOL   .%   : 12 Dolomite
VOLCUT_DOLLS .%   : 13 Dolomitic Limestone
VOLCUT_GYP   .%   : 14 Gypsum
VOLCUT_HAL   .%   : 15 Halite
VOLCUT_IGN   .%   : 16 Igneous
VOLCUT_LS    .%   : 17 Limestone
VOLCUT_MARL  .%   : 18 Marl
VOLCUT_SAND  .%   : 19 Sandstone
VOLCUT_SH    .%   : 20 Shale
VOLCUT_SST   .%   : 21 Siltstone
~Params ----------------------------------------------------
~Other -----------------------------------------------------
WellWizard export LAS version 2.0 file.
~ASCII -----------------------------------------------------
# ...
 17979     0     0     0     0     0     0     0     0     0     0     0   100     0     0     0     0     0     0     0     0
 17980     0     0     0     0     0     0     0     0     0     0     0   100     0     0     0     0     0     0     0     0
 17981     0     0     0     0     0     0     0     0     0     0     0   100     0     0     0     0     0     0     0     0
 17982     0     0     0     0     0     0     0     0     0     0     0   100     0     0     0     0     0     0     0     0
 17983     0     0     0     0     0     0     0     0     0     0     0   100     0     0     0     0     0     0     0     0
 17984     0     0     0     0     0     0     0     0     0     0     0   100     0     0     0     0     0     0     0     0
 17985     0     0     0     0     0     0     0     0     0     0     0   100     0     0     0     0     0     0     0     0
 17986     0     0     0     0     0     0     0     0     0     0     0   100     0     0     0     0     0     0     0     0
 17987     0     0     0     0     0     0     0     0     0     0     0   100     0     0     0     0     0     0     0     0
 17988     0     0     0     0     0     0     0     0     0     0     0   100     0     0     0     0     0     0     0     0
 17989     0     0     0     0     0     0     0     0     0     0     0   100     0     0     0     0     0     0     0     0
 17990     0     0     0     0     0     0     0     0     0     0     0   100     0     0     0     0     0     0     0     0
 17991     0     0     0     0     0     0     0     0     0     0     0   100     0     0     0     0     0     0     0     0
 17992     0     0     0     0     0     0     0     0     0     0     0   100     0     0     0     0     0     0     0     0
 17993     0     0     0     0     0     0     0     0     0     0     0   100     0     0     0     0     0     0     0     0
 17994     0     0     0     0     0     0     0     0     0     0     0   100     0     0     0     0     0     0     0     0
 17995     0     0     0     0     0     0     0     0     0     0     0   100     0     0     0     0     0     0     0     0
 17996     0     0     0     0     0     0     0     0     0     0     0   100     0     0     0     0     0     0     0     0
 17997     0     0     0     0     0     0     0     0     0     0     0   100     0     0     0     0     0     0     0     0
 17998     0     0     0     0     0     0     0     0     0     0     0   100     0     0     0     0     0     0     0     0
 17999     0     0     0     0     0     0     0     0     0     0     0   100     0     0     0     0     0     0     0     0
 18000     0     0     0     0     0     0     0     0     0     0     0   100     0     0     0     0     0     0     0     0
 18001     0     0     0     0     0     0     0     0     0     0     0   100     0     0     0     0     0     0     0     0
 18002     0     0     0     0     0     0     0     0     0     0     0   100     0     0     0     0     0     0     0     0
 18003     0     0     0     0     0     0     0     0     0     0     0   100     0     0     0     0     0     0     0     0
 18004     0     0     0     0     0     0     0     0     0     0     0   100     0     0     0     0     0     0     0     0
 18005     0     0     0     0     0     0     0     0     0     0     0   100     0     0     0     0     0     0     0     0
 18006     0     0     0     0     0     0     0     0     0     0     0   100     0     0     0     0     0     0     0     0
 18007     0     0     0     0     0     0     0     0     0     0     0   100     0     0     0     0     0     0     0     0
 18008     0     0     0     0     0     0     0     0     0     0     0   100     0     0     0     0     0     0     0     0
 18009     0     0     0     0     0     0     0     0     0     0     0   100     0     0     0     0     0     0     0     0
 18010     0     0     0     0     0     0     0     0     0     0     0   100     0     0     0     0     0     0     0     0
 18011     0     0     0     0     0     0     0     0     0     0     0   100     0     0     0     0     0     0     0     0
 18012     0     0     0     0     0     0     0     0     0     0     0   100     0     0     0     0     0     0     0     0
 18013     0     0     0     0     0     0     0     0     0     0     0   100     0     0     0     0     0     0     0     0
 18014     0     0     0     0     0     0     0     0     0     0     0   100     0     0     0     0     0     0     0     0
 18015     0     0     0     0     0     0     0     0     0     0     0   100     0     0     0     0     0     0     0     0
 18016     0     0     0     0     0     0     0     0     0     0     0   100     0     0     0     0     0     0     0     0
 18017     0     0     0     0     0     0     0     0     0     0     0   100     0     0     0     0     0     0     0     0
 18018     0     0     0     0     0     0     0     0     0     0     0   100     0     0     0     0     0     0     0     0
 18019     0     0     0     0     0     0     0     0     0     0     0   100     0     0     0     0     0     0     0     0
 18020     0     0     0     0     0     0     0     0     0     0     0   100     0     0     0     0     0     0     0     0
 18021     0     0     0     0     0     0     0     0     0     0     0   100     0     0     0     0     0     0     0     0
 18022     0     0     0     0     0     0     0     0     0     0     0   100     0     0     0     0     0     0     0     0
 18023     0     0     0     0     0     0     0     0     0     0     0   100     0     0     0     0     0     0     0     0
 18024     0     0     0     0     0     0     0     0     0     0     0   100     0     0     0     0     0     0     0     0
 18025     0     0     0     0     0     0     0     0     0     0     0   100     0     0     0     0     0     0     0     0
 18026     0     0     0     0     0     0     0     0     0     0     0   100     0     0     0     0     0     0     0     0
 18027     0     0     0     0     0     0     0     0     0     0     0   100     0     0     0     0     0     0     0     0
 18028     0     0     0     0     0     0     0     0     0     0     0   100     0     0     0     0     0     0     0     0
 18029     0     0     0     0     0     0     0     0     0     0     0   100     0     0     0     0     0     0     0     0
 18030     0     0     0     0     0     0     0     0     0     0     0   100     0     0     0     0     0     0     0     0
 18031     0     0     0     0     0     0     0     0     0     0     0   100     0     0     0     0     0     0     0     0
 18032     0     0     0     0     0     0     0     0     0     0     0   100     0     0     0     0     0     0     0     0
 18033     0     0     0     0     0     0     0     0     0     0     0   100     0     0     0     0     0     0     0     0
 18034     0     0     0     0     0     0     0     0     0     0     0   100     0     0     0     0     0     0     0     0
 18035     0     0     0     0     0     0     0     0     0     0     0   100     0     0     0     0     0     0     0     0
 18036     0     0     0     0     0     0     0     0     0     0     0   100     0     0     0     0     0     0     0     0
 18037     0     0     0     0     0     0     0     0     0     0     0   100     0     0     0     0     0     0     0     0
 18038     0     0     0     0     0     0     0     0     0     0     0   100     0     0     0     0     0     0     0     0
 18039     0     0     0     0     0     0     0     0     0     0     0   100     0     0     0     0     0     0     0     0
 18040     0     0     0     0     0     0     0     0     0     0     0   100     0     0     0     0     0     0     0     0
 18041     0     0     0     0     0     0     0     0     0     0     0   100     0     0     0     0     0     0     0     0
