~Version ---------------------------------------------------
VERS. 2.0 : CWLS log ASCII Standard -VERSION 2.0
WRAP.  NO : ONE LINE PER DEPTH STEP
~Well ------------------------------------------------------
STRT.ft           17790.0 : START DEPTH
STOP.ft           20480.0 : STOP  DEPTH
STEP.ft                 1 : STEP VALUE
NULL.             -999.25 : NULL VALUE
COMP.        SAUDI ARAMCO : COMPANY NAME
WELL.         HWYH_1258_0 : WELL NAME
FLD .              HAWYAH : FIELD NAME
LOC .     189 KM FROM DMG : LOCATION
PROV.                     : PROVINCE
SRVC.               EXLOG : SERVICE COMPANY NAME
DATE.         10_MAR_2022 : DATE
UWI . W000BAB6BF1CAR8480Q : UNIQUE WELL IDENTIFIER
~Curve Information -----------------------------------------
DEPTH        .ft  : 1 Hole Depth
VOLCUT_ANHY  .%   : 2 Anhydrite
VOLCUT_ARGDOL.%   : 3 Argillaceous Dolomite
VOLCUT_ARGLS .%   : 4 Argillaceous Limestone
VOLCUT_CALDOL.%   : 5 Calcarenite Dolomite
VOLCUT_CALLS .%   : 6 Calcarenite Limestone
VOLCUT_CEMENT.%   : 7 Cement
VOLCUT_CHERT .%   : 8 Chert
VOLCUT_CLAY  .%   : 9 Clay
VOLCUT_COAL  .%   : 10 Coal_Lignite_TAR
VOLCUT_CONG  .%   : 11 Conglomerate
VOLCUT_DOL   .%   : 12 Dolomite
VOLCUT_DOLLS .%   : 13 Dolomitic Limestone
VOLCUT_GYP   .%   : 14 Gypsum
VOLCUT_HAL   .%   : 15 Halite
VOLCUT_IGN   .%   : 16 Igneous
VOLCUT_LS    .%   : 17 Limestone
VOLCUT_MARL  .%   : 18 Marl
VOLCUT_SAND  .%   : 19 Sandstone
VOLCUT_SH    .%   : 20 Shale
VOLCUT_SST   .%   : 21 Siltstone
~Params ----------------------------------------------------
~Other -----------------------------------------------------
WellWizard export LAS version 2.0 file.
~ASCII -----------------------------------------------------
# ...
 19176     0     0     0     0     0     0     0     0     0     0     0   100     0     0     0     0     0     0     0     0
 19177     0     0     0     0     0     0     0     0     0     0     0   100     0     0     0     0     0     0     0     0
 19178     0     0     0     0     0     0     0     0     0     0     0   100     0     0     0     0     0     0     0     0
 19179     0     0     0     0     0     0     0     0     0     0     0   100     0     0     0     0     0     0     0     0
 19180     0     0     0     0     0     0     0     0     0     0     0   100     0     0     0     0     0     0     0     0
 19181     0     0     0     0     0     0     0     0     0     0     0   100     0     0     0     0     0     0     0     0
 19182     0     0     0     0     0     0     0     0     0     0     0   100     0     0     0     0     0     0     0     0
 19183     0     0     0     0     0     0     0     0     0     0     0   100     0     0     0     0     0     0     0     0
 19184     0     0     0     0     0     0     0     0     0     0     0   100     0     0     0     0     0     0     0     0
 19185     0     0     0     0     0     0     0     0     0     0     0   100     0     0     0     0     0     0     0     0
 19186     0     0     0     0     0     0     0     0     0     0     0   100     0     0     0     0     0     0     0     0
 19187     0     0     0     0     0     0     0     0     0     0     0   100     0     0     0     0     0     0     0     0
 19188     0     0     0     0     0     0     0     0     0     0     0   100     0     0     0     0     0     0     0     0
 19189     0     0     0     0     0     0     0     0     0     0     0   100     0     0     0     0     0     0     0     0
 19190     0     0     0     0     0     0     0     0     0     0     0   100     0     0     0     0     0     0     0     0
 19191     0     0     0     0     0     0     0     0     0     0     0   100     0     0     0     0     0     0     0     0
 19192     0     0     0     0     0     0     0     0     0     0     0   100     0     0     0     0     0     0     0     0
 19193     0     0     0     0     0     0     0     0     0     0     0   100     0     0     0     0     0     0     0     0
 19194     0     0     0     0     0     0     0     0     0     0     0   100     0     0     0     0     0     0     0     0
 19195     0     0     0     0     0     0     0     0     0     0     0   100     0     0     0     0     0     0     0     0
 19196     0     0     0     0     0     0     0     0     0     0     0   100     0     0     0     0     0     0     0     0
 19197     0     0     0     0     0     0     0     0     0     0     0   100     0     0     0     0     0     0     0     0
 19198     0     0     0     0     0     0     0     0     0     0     0   100     0     0     0     0     0     0     0     0
 19199     0     0     0     0     0     0     0     0     0     0     0   100     0     0     0     0     0     0     0     0
 19200     0     0     0     0     0     0     0     0     0     0     0   100     0     0     0     0     0     0     0     0
 19201     0     0     0     0     0     0     0     0     0     0     0   100     0     0     0     0     0     0     0     0
 19202     0     0     0     0     0     0     0     0     0     0     0   100     0     0     0     0     0     0     0     0
 19203     0     0     0     0     0     0     0     0     0     0     0   100     0     0     0     0     0     0     0     0
 19204     0     0     0     0     0     0     0     0     0     0     0   100     0     0     0     0     0     0     0     0
 19205     0     0     0     0     0     0     0     0     0     0     0   100     0     0     0     0     0     0     0     0
 19206     0     0     0     0     0     0     0     0     0     0     0   100     0     0     0     0     0     0     0     0
 19207     0     0     0     0     0     0     0     0     0     0     0   100     0     0     0     0     0     0     0     0
 19208     0     0     0     0     0     0     0     0     0     0     0   100     0     0     0     0     0     0     0     0
 19209     0     0     0     0     0     0     0     0     0     0     0   100     0     0     0     0     0     0     0     0
 19210     0     0     0     0     0     0     0     0     0     0     0   100     0     0     0     0     0     0     0     0
 19211     0     0     0     0     0     0     0     0     0     0     0   100     0     0     0     0     0     0     0     0
 19212     0     0     0     0     0     0     0     0     0     0     0   100     0     0     0     0     0     0     0     0
 19213     0     0     0     0     0     0     0     0     0     0     0   100     0     0     0     0     0     0     0     0
 19214     0     0     0     0     0     0     0     0     0     0     0   100     0     0     0     0     0     0     0     0
 19215     0     0     0     0     0     0     0     0     0     0     0   100     0     0     0     0     0     0     0     0
 19216     0     0     0     0     0     0     0     0     0     0     0   100     0     0     0     0     0     0     0     0
 19217     0     0     0     0     0     0     0     0     0     0     0   100     0     0     0     0     0     0     0     0
 19218     0     0     0     0     0     0     0     0     0     0     0   100     0     0     0     0     0     0     0     0
 19219     0     0     0     0     0     0     0     0     0     0     0   100     0     0     0     0     0     0     0     0
 19220     0     0     0     0     0     0     0     0     0     0     0   100     0     0     0     0     0     0     0     0
 19221     0     0     0     0     0     0     0     0     0     0     0   100     0     0     0     0     0     0     0     0
 19222     0     0     0     0     0     0     0     0     0     0     0   100     0     0     0     0     0     0     0     0
 19223     0     0     0     0     0     0     0     0     0     0     0   100     0     0     0     0     0     0     0     0
 19224     0     0     0     0     0     0     0     0     0     0     0   100     0     0     0     0     0     0     0     0
 19225     0     0     0     0     0     0     0     0     0     0     0   100     0     0     0     0     0     0     0     0
 19226     0     0     0     0     0     0     0     0     0     0     0   100     0     0     0     0     0     0     0     0
 19227     0     0     0     0     0     0     0     0     0     0     0   100     0     0     0     0     0     0     0     0
 19228     0     0     0     0     0     0     0     0     0     0     0   100     0     0     0     0     0     0     0     0
 19229     0     0     0     0     0     0     0     0     0     0     0   100     0     0     0     0     0     0     0     0
 19230     0     0     0     0     0     0     0     0     0     0     0   100     0     0     0     0     0     0     0     0
 19231     0     0     0     0     0     0     0     0     0     0     0   100     0     0     0     0     0     0     0     0
 19232     0     0     0     0     0     0     0     0     0     0     0   100     0     0     0     0     0     0     0     0
 19233     0     0     0     0     0     0     0     0     0     0     0   100     0     0     0     0     0     0     0     0
 19234     0     0     0     0     0     0     0     0     0     0     0   100     0     0     0     0     0     0     0     0
 19235     0     0     0     0     0     0     0     0     0     0     0   100     0     0     0     0     0     0     0     0
 19236     0     0     0     0     0     0     0     0     0     0     0   100     0     0     0     0     0     0     0     0
 19237     0     0     0     0     0     0     0     0     0     0     0   100     0     0     0     0     0     0     0     0
 19238     0     0     0     0     0     0     0     0     0     0     0   100     0     0     0     0     0     0     0     0
