~Version ---------------------------------------------------
VERS. 2.0 : CWLS log ASCII Standard -VERSION 2.0
WRAP.  NO : ONE LINE PER DEPTH STEP
~Well ------------------------------------------------------
STRT.ft           17790.0 : START DEPTH
STOP.ft           20480.0 : STOP  DEPTH
STEP.ft                 1 : STEP VALUE
NULL.             -999.25 : NULL VALUE
COMP.        SAUDI ARAMCO : COMPANY NAME
WELL.         HWYH_1258_0 : WELL NAME
FLD .              HAWYAH : FIELD NAME
LOC .     189 KM FROM DMG : LOCATION
PROV.                     : PROVINCE
SRVC.               EXLOG : SERVICE COMPANY NAME
DATE.         10_MAR_2022 : DATE
UWI . W000BAB6BF1CAR8480Q : UNIQUE WELL IDENTIFIER
~Curve Information -----------------------------------------
DEPTH        .ft  : 1 Hole Depth
VOLCUT_ANHY  .%   : 2 Anhydrite
VOLCUT_ARGDOL.%   : 3 Argillaceous Dolomite
VOLCUT_ARGLS .%   : 4 Argillaceous Limestone
VOLCUT_CALDOL.%   : 5 Calcarenite Dolomite
VOLCUT_CALLS .%   : 6 Calcarenite Limestone
VOLCUT_CEMENT.%   : 7 Cement
VOLCUT_CHERT .%   : 8 Chert
VOLCUT_CLAY  .%   : 9 Clay
VOLCUT_COAL  .%   : 10 Coal_Lignite_TAR
VOLCUT_CONG  .%   : 11 Conglomerate
VOLCUT_DOL   .%   : 12 Dolomite
VOLCUT_DOLLS .%   : 13 Dolomitic Limestone
VOLCUT_GYP   .%   : 14 Gypsum
VOLCUT_HAL   .%   : 15 Halite
VOLCUT_IGN   .%   : 16 Igneous
VOLCUT_LS    .%   : 17 Limestone
VOLCUT_MARL  .%   : 18 Marl
VOLCUT_SAND  .%   : 19 Sandstone
VOLCUT_SH    .%   : 20 Shale
VOLCUT_SST   .%   : 21 Siltstone
~Params ----------------------------------------------------
~Other -----------------------------------------------------
WellWizard export LAS version 2.0 file.
~ASCII -----------------------------------------------------
# ...
 18294     0     0     0     0     0     0     0     0     0     0     0   100     0     0     0     0     0     0     0     0
 18295     0     0     0     0     0     0     0     0     0     0     0   100     0     0     0     0     0     0     0     0
 18296     0     0     0     0     0     0     0     0     0     0     0   100     0     0     0     0     0     0     0     0
 18297     0     0     0     0     0     0     0     0     0     0     0   100     0     0     0     0     0     0     0     0
 18298     0     0     0     0     0     0     0     0     0     0     0   100     0     0     0     0     0     0     0     0
 18299     0     0     0     0     0     0     0     0     0     0     0   100     0     0     0     0     0     0     0     0
 18300     0     0     0     0     0     0     0     0     0     0     0   100     0     0     0     0     0     0     0     0
 18301     0     0     0     0     0     0     0     0     0     0     0   100     0     0     0     0     0     0     0     0
 18302     0     0     0     0     0     0     0     0     0     0     0   100     0     0     0     0     0     0     0     0
 18303     0     0     0     0     0     0     0     0     0     0     0   100     0     0     0     0     0     0     0     0
 18304     0     0     0     0     0     0     0     0     0     0     0   100     0     0     0     0     0     0     0     0
 18305     0     0     0     0     0     0     0     0     0     0     0   100     0     0     0     0     0     0     0     0
 18306     0     0     0     0     0     0     0     0     0     0     0   100     0     0     0     0     0     0     0     0
 18307     0     0     0     0     0     0     0     0     0     0     0   100     0     0     0     0     0     0     0     0
 18308     0     0     0     0     0     0     0     0     0     0     0   100     0     0     0     0     0     0     0     0
 18309     0     0     0     0     0     0     0     0     0     0     0   100     0     0     0     0     0     0     0     0
 18310     0     0     0     0     0     0     0     0     0     0     0   100     0     0     0     0     0     0     0     0
 18311     0     0     0     0     0     0     0     0     0     0     0   100     0     0     0     0     0     0     0     0
 18312     0     0     0     0     0     0     0     0     0     0     0   100     0     0     0     0     0     0     0     0
 18313     0     0     0     0     0     0     0     0     0     0     0   100     0     0     0     0     0     0     0     0
 18314     0     0     0     0     0     0     0     0     0     0     0   100     0     0     0     0     0     0     0     0
 18315     0     0     0     0     0     0     0     0     0     0     0   100     0     0     0     0     0     0     0     0
 18316     0     0     0     0     0     0     0     0     0     0     0   100     0     0     0     0     0     0     0     0
 18317     0     0     0     0     0     0     0     0     0     0     0   100     0     0     0     0     0     0     0     0
 18318     0     0     0     0     0     0     0     0     0     0     0   100     0     0     0     0     0     0     0     0
 18319     0     0     0     0     0     0     0     0     0     0     0   100     0     0     0     0     0     0     0     0
 18320     0     0     0     0     0     0     0     0     0     0     0   100     0     0     0     0     0     0     0     0
 18321     0     0     0     0     0     0     0     0     0     0     0   100     0     0     0     0     0     0     0     0
 18322     0     0     0     0     0     0     0     0     0     0     0   100     0     0     0     0     0     0     0     0
 18323     0     0     0     0     0     0     0     0     0     0     0   100     0     0     0     0     0     0     0     0
 18324     0     0     0     0     0     0     0     0     0     0     0   100     0     0     0     0     0     0     0     0
 18325     0     0     0     0     0     0     0     0     0     0     0   100     0     0     0     0     0     0     0     0
 18326     0     0     0     0     0     0     0     0     0     0     0   100     0     0     0     0     0     0     0     0
 18327     0     0     0     0     0     0     0     0     0     0     0   100     0     0     0     0     0     0     0     0
 18328     0     0     0     0     0     0     0     0     0     0     0   100     0     0     0     0     0     0     0     0
 18329     0     0     0     0     0     0     0     0     0     0     0   100     0     0     0     0     0     0     0     0
 18330     0     0     0     0     0     0     0     0     0     0     0   100     0     0     0     0     0     0     0     0
 18331     0     0     0     0     0     0     0     0     0     0     0   100     0     0     0     0     0     0     0     0
 18332     0     0     0     0     0     0     0     0     0     0     0   100     0     0     0     0     0     0     0     0
 18333     0     0     0     0     0     0     0     0     0     0     0   100     0     0     0     0     0     0     0     0
 18334     0     0     0     0     0     0     0     0     0     0     0   100     0     0     0     0     0     0     0     0
 18335     0     0     0     0     0     0     0     0     0     0     0   100     0     0     0     0     0     0     0     0
 18336     0     0     0     0     0     0     0     0     0     0     0   100     0     0     0     0     0     0     0     0
 18337     0     0     0     0     0     0     0     0     0     0     0   100     0     0     0     0     0     0     0     0
 18338     0     0     0     0     0     0     0     0     0     0     0   100     0     0     0     0     0     0     0     0
 18339     0     0     0     0     0     0     0     0     0     0     0   100     0     0     0     0     0     0     0     0
 18340     0     0     0     0     0     0     0     0     0     0     0   100     0     0     0     0     0     0     0     0
 18341     0     0     0     0     0     0     0     0     0     0     0   100     0     0     0     0     0     0     0     0
 18342     0     0     0     0     0     0     0     0     0     0     0   100     0     0     0     0     0     0     0     0
 18343     0     0     0     0     0     0     0     0     0     0     0   100     0     0     0     0     0     0     0     0
 18344     0     0     0     0     0     0     0     0     0     0     0   100     0     0     0     0     0     0     0     0
 18345     0     0     0     0     0     0     0     0     0     0     0   100     0     0     0     0     0     0     0     0
 18346     0     0     0     0     0     0     0     0     0     0     0   100     0     0     0     0     0     0     0     0
 18347     0     0     0     0     0     0     0     0     0     0     0   100     0     0     0     0     0     0     0     0
 18348     0     0     0     0     0     0     0     0     0     0     0   100     0     0     0     0     0     0     0     0
 18349     0     0     0     0     0     0     0     0     0     0     0   100     0     0     0     0     0     0     0     0
 18350     0     0     0     0     0     0     0     0     0     0     0   100     0     0     0     0     0     0     0     0
 18351     0     0     0     0     0     0     0     0     0     0     0   100     0     0     0     0     0     0     0     0
 18352     0     0     0     0     0     0     0     0     0     0     0   100     0     0     0     0     0     0     0     0
 18353     0     0     0     0     0     0     0     0     0     0     0   100     0     0     0     0     0     0     0     0
 18354     0     0     0     0     0     0     0     0     0     0     0   100     0     0     0     0     0     0     0     0
 18355     0     0     0     0     0     0     0     0     0     0     0   100     0     0     0     0     0     0     0     0
 18356     0     0     0     0     0     0     0     0     0     0     0   100     0     0     0     0     0     0     0     0
