~Version ---------------------------------------------------
VERS. 2.0 : CWLS log ASCII Standard -VERSION 2.0
WRAP.  NO : ONE LINE PER DEPTH STEP
~Well ------------------------------------------------------
STRT.ft           17790.0 : START DEPTH
STOP.ft           20480.0 : STOP  DEPTH
STEP.ft                 1 : STEP VALUE
NULL.             -999.25 : NULL VALUE
COMP.        SAUDI ARAMCO : COMPANY NAME
WELL.         HWYH_1258_0 : WELL NAME
FLD .              HAWYAH : FIELD NAME
LOC .     189 KM FROM DMG : LOCATION
PROV.                     : PROVINCE
SRVC.               EXLOG : SERVICE COMPANY NAME
DATE.         10_MAR_2022 : DATE
UWI . W000BAB6BF1CAR8480Q : UNIQUE WELL IDENTIFIER
~Curve Information -----------------------------------------
DEPTH        .ft  : 1 Hole Depth
VOLCUT_ANHY  .%   : 2 Anhydrite
VOLCUT_ARGDOL.%   : 3 Argillaceous Dolomite
VOLCUT_ARGLS .%   : 4 Argillaceous Limestone
VOLCUT_CALDOL.%   : 5 Calcarenite Dolomite
VOLCUT_CALLS .%   : 6 Calcarenite Limestone
VOLCUT_CEMENT.%   : 7 Cement
VOLCUT_CHERT .%   : 8 Chert
VOLCUT_CLAY  .%   : 9 Clay
VOLCUT_COAL  .%   : 10 Coal_Lignite_TAR
VOLCUT_CONG  .%   : 11 Conglomerate
VOLCUT_DOL   .%   : 12 Dolomite
VOLCUT_DOLLS .%   : 13 Dolomitic Limestone
VOLCUT_GYP   .%   : 14 Gypsum
VOLCUT_HAL   .%   : 15 Halite
VOLCUT_IGN   .%   : 16 Igneous
VOLCUT_LS    .%   : 17 Limestone
VOLCUT_MARL  .%   : 18 Marl
VOLCUT_SAND  .%   : 19 Sandstone
VOLCUT_SH    .%   : 20 Shale
VOLCUT_SST   .%   : 21 Siltstone
~Params ----------------------------------------------------
~Other -----------------------------------------------------
WellWizard export LAS version 2.0 file.
~ASCII -----------------------------------------------------
# ...
 19932     0     0     0     0     0     0     0     0     0     0     0   100     0     0     0     0     0     0     0     0
 19933     0     0     0     0     0     0     0     0     0     0     0   100     0     0     0     0     0     0     0     0
 19934     0     0     0     0     0     0     0     0     0     0     0   100     0     0     0     0     0     0     0     0
 19935     0     0     0     0     0     0     0     0     0     0     0   100     0     0     0     0     0     0     0     0
 19936     0     0     0     0     0     0     0     0     0     0     0   100     0     0     0     0     0     0     0     0
 19937     0     0     0     0     0     0     0     0     0     0     0   100     0     0     0     0     0     0     0     0
 19938     0     0     0     0     0     0     0     0     0     0     0   100     0     0     0     0     0     0     0     0
 19939     0     0     0     0     0     0     0     0     0     0     0   100     0     0     0     0     0     0     0     0
 19940     0     0     0     0     0     0     0     0     0     0     0   100     0     0     0     0     0     0     0     0
 19941     0     0     0     0     0     0     0     0     0     0     0   100     0     0     0     0     0     0     0     0
 19942     0     0     0     0     0     0     0     0     0     0     0   100     0     0     0     0     0     0     0     0
 19943     0     0     0     0     0     0     0     0     0     0     0   100     0     0     0     0     0     0     0     0
 19944     0     0     0     0     0     0     0     0     0     0     0   100     0     0     0     0     0     0     0     0
 19945     0     0     0     0     0     0     0     0     0     0     0   100     0     0     0     0     0     0     0     0
 19946     0     0     0     0     0     0     0     0     0     0     0   100     0     0     0     0     0     0     0     0
 19947     0     0     0     0     0     0     0     0     0     0     0   100     0     0     0     0     0     0     0     0
 19948     0     0     0     0     0     0     0     0     0     0     0   100     0     0     0     0     0     0     0     0
 19949     0     0     0     0     0     0     0     0     0     0     0   100     0     0     0     0     0     0     0     0
 19950     0     0     0     0     0     0     0     0     0     0     0   100     0     0     0     0     0     0     0     0
 19951     0     0     0     0     0     0     0     0     0     0     0   100     0     0     0     0     0     0     0     0
 19952     0     0     0     0     0     0     0     0     0     0     0   100     0     0     0     0     0     0     0     0
 19953     0     0     0     0     0     0     0     0     0     0     0   100     0     0     0     0     0     0     0     0
 19954     0     0     0     0     0     0     0     0     0     0     0   100     0     0     0     0     0     0     0     0
 19955     0     0     0     0     0     0     0     0     0     0     0   100     0     0     0     0     0     0     0     0
 19956     0     0     0     0     0     0     0     0     0     0     0   100     0     0     0     0     0     0     0     0
 19957     0     0     0     0     0     0     0     0     0     0     0   100     0     0     0     0     0     0     0     0
 19958     0     0     0     0     0     0     0     0     0     0     0   100     0     0     0     0     0     0     0     0
 19959     0     0     0     0     0     0     0     0     0     0     0   100     0     0     0     0     0     0     0     0
 19960     0     0     0     0     0     0     0     0     0     0     0   100     0     0     0     0     0     0     0     0
 19961     0     0     0     0     0     0     0     0     0     0     0   100     0     0     0     0     0     0     0     0
 19962     0     0     0     0     0     0     0     0     0     0     0   100     0     0     0     0     0     0     0     0
 19963     0     0     0     0     0     0     0     0     0     0     0   100     0     0     0     0     0     0     0     0
 19964     0     0     0     0     0     0     0     0     0     0     0   100     0     0     0     0     0     0     0     0
 19965     0     0     0     0     0     0     0     0     0     0     0   100     0     0     0     0     0     0     0     0
 19966     0     0     0     0     0     0     0     0     0     0     0   100     0     0     0     0     0     0     0     0
 19967     0     0     0     0     0     0     0     0     0     0     0   100     0     0     0     0     0     0     0     0
 19968     0     0     0     0     0     0     0     0     0     0     0   100     0     0     0     0     0     0     0     0
 19969     0     0     0     0     0     0     0     0     0     0     0   100     0     0     0     0     0     0     0     0
 19970     0     0     0     0     0     0     0     0     0     0     0   100     0     0     0     0     0     0     0     0
 19971     0     0     0     0     0     0     0     0     0     0     0   100     0     0     0     0     0     0     0     0
 19972     0     0     0     0     0     0     0     0     0     0     0   100     0     0     0     0     0     0     0     0
 19973     0     0     0     0     0     0     0     0     0     0     0   100     0     0     0     0     0     0     0     0
 19974     0     0     0     0     0     0     0     0     0     0     0   100     0     0     0     0     0     0     0     0
 19975     0     0     0     0     0     0     0     0     0     0     0   100     0     0     0     0     0     0     0     0
 19976     0     0     0     0     0     0     0     0     0     0     0   100     0     0     0     0     0     0     0     0
 19977     0     0     0     0     0     0     0     0     0     0     0   100     0     0     0     0     0     0     0     0
 19978     0     0     0     0     0     0     0     0     0     0     0   100     0     0     0     0     0     0     0     0
 19979     0     0     0     0     0     0     0     0     0     0     0   100     0     0     0     0     0     0     0     0
 19980     0     0     0     0     0     0     0     0     0     0     0   100     0     0     0     0     0     0     0     0
 19981     0     0     0     0     0     0     0     0     0     0     0   100     0     0     0     0     0     0     0     0
 19982     0     0     0     0     0     0     0     0     0     0     0   100     0     0     0     0     0     0     0     0
 19983     0     0     0     0     0     0     0     0     0     0     0   100     0     0     0     0     0     0     0     0
 19984     0     0     0     0     0     0     0     0     0     0     0   100     0     0     0     0     0     0     0     0
 19985     0     0     0     0     0     0     0     0     0     0     0   100     0     0     0     0     0     0     0     0
 19986     0     0     0     0     0     0     0     0     0     0     0   100     0     0     0     0     0     0     0     0
 19987     0     0     0     0     0     0     0     0     0     0     0   100     0     0     0     0     0     0     0     0
 19988     0     0     0     0     0     0     0     0     0     0     0   100     0     0     0     0     0     0     0     0
 19989     0     0     0     0     0     0     0     0     0     0     0   100     0     0     0     0     0     0     0     0
 19990     0     0     0     0     0     0     0     0     0     0     0   100     0     0     0     0     0     0     0     0
 19991     0     0     0     0     0     0     0     0     0     0     0   100     0     0     0     0     0     0     0     0
 19992     0     0     0     0     0     0     0     0     0     0     0   100     0     0     0     0     0     0     0     0
 19993     0     0     0     0     0     0     0     0     0     0     0   100     0     0     0     0     0     0     0     0
 19994     0     0     0     0     0     0     0     0     0     0     0   100     0     0     0     0     0     0     0     0
