~Version ---------------------------------------------------
VERS. 2.0 : CWLS log ASCII Standard -VERSION 2.0
WRAP.  NO : ONE LINE PER DEPTH STEP
~Well ------------------------------------------------------
STRT.ft           17790.0 : START DEPTH
STOP.ft           20480.0 : STOP  DEPTH
STEP.ft                 1 : STEP VALUE
NULL.             -999.25 : NULL VALUE
COMP.        SAUDI ARAMCO : COMPANY NAME
WELL.         HWYH_1258_0 : WELL NAME
FLD .              HAWYAH : FIELD NAME
LOC .     189 KM FROM DMG : LOCATION
PROV.                     : PROVINCE
SRVC.               EXLOG : SERVICE COMPANY NAME
DATE.         10_MAR_2022 : DATE
UWI . W000BAB6BF1CAR8480Q : UNIQUE WELL IDENTIFIER
~Curve Information -----------------------------------------
DEPTH        .ft  : 1 Hole Depth
VOLCUT_ANHY  .%   : 2 Anhydrite
VOLCUT_ARGDOL.%   : 3 Argillaceous Dolomite
VOLCUT_ARGLS .%   : 4 Argillaceous Limestone
VOLCUT_CALDOL.%   : 5 Calcarenite Dolomite
VOLCUT_CALLS .%   : 6 Calcarenite Limestone
VOLCUT_CEMENT.%   : 7 Cement
VOLCUT_CHERT .%   : 8 Chert
VOLCUT_CLAY  .%   : 9 Clay
VOLCUT_COAL  .%   : 10 Coal_Lignite_TAR
VOLCUT_CONG  .%   : 11 Conglomerate
VOLCUT_DOL   .%   : 12 Dolomite
VOLCUT_DOLLS .%   : 13 Dolomitic Limestone
VOLCUT_GYP   .%   : 14 Gypsum
VOLCUT_HAL   .%   : 15 Halite
VOLCUT_IGN   .%   : 16 Igneous
VOLCUT_LS    .%   : 17 Limestone
VOLCUT_MARL  .%   : 18 Marl
VOLCUT_SAND  .%   : 19 Sandstone
VOLCUT_SH    .%   : 20 Shale
VOLCUT_SST   .%   : 21 Siltstone
~Params ----------------------------------------------------
~Other -----------------------------------------------------
WellWizard export LAS version 2.0 file.
~ASCII -----------------------------------------------------
# ...
 20058     0     0     0     0     0     0     0     0     0     0     0   100     0     0     0     0     0     0     0     0
 20059     0     0     0     0     0     0     0     0     0     0     0   100     0     0     0     0     0     0     0     0
 20060     0     0     0     0     0     0     0     0     0     0     0   100     0     0     0     0     0     0     0     0
 20061     0     0     0     0     0     0     0     0     0     0     0   100     0     0     0     0     0     0     0     0
 20062     0     0     0     0     0     0     0     0     0     0     0   100     0     0     0     0     0     0     0     0
 20063     0     0     0     0     0     0     0     0     0     0     0   100     0     0     0     0     0     0     0     0
 20064     0     0     0     0     0     0     0     0     0     0     0   100     0     0     0     0     0     0     0     0
 20065     0     0     0     0     0     0     0     0     0     0     0   100     0     0     0     0     0     0     0     0
 20066     0     0     0     0     0     0     0     0     0     0     0   100     0     0     0     0     0     0     0     0
 20067     0     0     0     0     0     0     0     0     0     0     0   100     0     0     0     0     0     0     0     0
 20068     0     0     0     0     0     0     0     0     0     0     0   100     0     0     0     0     0     0     0     0
 20069     0     0     0     0     0     0     0     0     0     0     0   100     0     0     0     0     0     0     0     0
 20070     0     0     0     0     0     0     0     0     0     0     0   100     0     0     0     0     0     0     0     0
 20071     0     0     0     0     0     0     0     0     0     0     0   100     0     0     0     0     0     0     0     0
 20072     0     0     0     0     0     0     0     0     0     0     0   100     0     0     0     0     0     0     0     0
 20073     0     0     0     0     0     0     0     0     0     0     0   100     0     0     0     0     0     0     0     0
 20074     0     0     0     0     0     0     0     0     0     0     0   100     0     0     0     0     0     0     0     0
 20075     0     0     0     0     0     0     0     0     0     0     0   100     0     0     0     0     0     0     0     0
 20076     0     0     0     0     0     0     0     0     0     0     0   100     0     0     0     0     0     0     0     0
 20077     0     0     0     0     0     0     0     0     0     0     0   100     0     0     0     0     0     0     0     0
 20078     0     0     0     0     0     0     0     0     0     0     0   100     0     0     0     0     0     0     0     0
 20079     0     0     0     0     0     0     0     0     0     0     0   100     0     0     0     0     0     0     0     0
 20080     0     0     0     0     0     0     0     0     0     0     0   100     0     0     0     0     0     0     0     0
 20081     0     0     0     0     0     0     0     0     0     0     0   100     0     0     0     0     0     0     0     0
 20082     0     0     0     0     0     0     0     0     0     0     0   100     0     0     0     0     0     0     0     0
 20083     0     0     0     0     0     0     0     0     0     0     0   100     0     0     0     0     0     0     0     0
 20084     0     0     0     0     0     0     0     0     0     0     0   100     0     0     0     0     0     0     0     0
 20085     0     0     0     0     0     0     0     0     0     0     0   100     0     0     0     0     0     0     0     0
 20086     0     0     0     0     0     0     0     0     0     0     0   100     0     0     0     0     0     0     0     0
 20087     0     0     0     0     0     0     0     0     0     0     0   100     0     0     0     0     0     0     0     0
 20088     0     0     0     0     0     0     0     0     0     0     0   100     0     0     0     0     0     0     0     0
 20089     0     0     0     0     0     0     0     0     0     0     0   100     0     0     0     0     0     0     0     0
 20090     0     0     0     0     0     0     0     0     0     0     0   100     0     0     0     0     0     0     0     0
 20091     0     0     0     0     0     0     0     0     0     0     0   100     0     0     0     0     0     0     0     0
 20092     0     0     0     0     0     0     0     0     0     0     0   100     0     0     0     0     0     0     0     0
 20093     0     0     0     0     0     0     0     0     0     0     0   100     0     0     0     0     0     0     0     0
 20094     0     0     0     0     0     0     0     0     0     0     0   100     0     0     0     0     0     0     0     0
 20095     0     0     0     0     0     0     0     0     0     0     0   100     0     0     0     0     0     0     0     0
 20096     0     0     0     0     0     0     0     0     0     0     0   100     0     0     0     0     0     0     0     0
 20097     0     0     0     0     0     0     0     0     0     0     0   100     0     0     0     0     0     0     0     0
 20098     0     0     0     0     0     0     0     0     0     0     0   100     0     0     0     0     0     0     0     0
 20099     0     0     0     0     0     0     0     0     0     0     0   100     0     0     0     0     0     0     0     0
 20100     0     0     0     0     0     0     0     0     0     0     0   100     0     0     0     0     0     0     0     0
 20101     0     0     0     0     0     0     0     0     0     0     0   100     0     0     0     0     0     0     0     0
 20102     0     0     0     0     0     0     0     0     0     0     0   100     0     0     0     0     0     0     0     0
 20103     0     0     0     0     0     0     0     0     0     0     0   100     0     0     0     0     0     0     0     0
 20104     0     0     0     0     0     0     0     0     0     0     0   100     0     0     0     0     0     0     0     0
 20105     0     0     0     0     0     0     0     0     0     0     0   100     0     0     0     0     0     0     0     0
 20106     0     0     0     0     0     0     0     0     0     0     0   100     0     0     0     0     0     0     0     0
 20107     0     0     0     0     0     0     0     0     0     0     0   100     0     0     0     0     0     0     0     0
 20108     0     0     0     0     0     0     0     0     0     0     0   100     0     0     0     0     0     0     0     0
 20109     0     0     0     0     0     0     0     0     0     0     0   100     0     0     0     0     0     0     0     0
 20110     0     0     0     0     0     0     0     0     0     0     0   100     0     0     0     0     0     0     0     0
 20111     0     0     0     0     0     0     0     0     0     0     0   100     0     0     0     0     0     0     0     0
 20112     0     0     0     0     0     0     0     0     0     0     0   100     0     0     0     0     0     0     0     0
 20113     0     0     0     0     0     0     0     0     0     0     0   100     0     0     0     0     0     0     0     0
 20114     0     0     0     0     0     0     0     0     0     0     0   100     0     0     0     0     0     0     0     0
 20115     0     0     0     0     0     0     0     0     0     0     0   100     0     0     0     0     0     0     0     0
 20116     0     0     0     0     0     0     0     0     0     0     0   100     0     0     0     0     0     0     0     0
 20117     0     0     0     0     0     0     0     0     0     0     0   100     0     0     0     0     0     0     0     0
 20118     0     0     0     0     0     0     0     0     0     0     0   100     0     0     0     0     0     0     0     0
 20119     0     0     0     0     0     0     0     0     0     0     0   100     0     0     0     0     0     0     0     0
 20120     0     0     0     0     0     0     0     0     0     0     0   100     0     0     0     0     0     0     0     0
