~Version ---------------------------------------------------
VERS. 2.0 : CWLS log ASCII Standard -VERSION 2.0
WRAP.  NO : ONE LINE PER DEPTH STEP
~Well ------------------------------------------------------
STRT.ft           17790.0 : START DEPTH
STOP.ft           20480.0 : STOP  DEPTH
STEP.ft                 1 : STEP VALUE
NULL.             -999.25 : NULL VALUE
COMP.        SAUDI ARAMCO : COMPANY NAME
WELL.         HWYH_1258_0 : WELL NAME
FLD .              HAWYAH : FIELD NAME
LOC .     189 KM FROM DMG : LOCATION
PROV.                     : PROVINCE
SRVC.               EXLOG : SERVICE COMPANY NAME
DATE.         10_MAR_2022 : DATE
UWI . W000BAB6BF1CAR8480Q : UNIQUE WELL IDENTIFIER
~Curve Information -----------------------------------------
DEPTH        .ft  : 1 Hole Depth
VOLCUT_ANHY  .%   : 2 Anhydrite
VOLCUT_ARGDOL.%   : 3 Argillaceous Dolomite
VOLCUT_ARGLS .%   : 4 Argillaceous Limestone
VOLCUT_CALDOL.%   : 5 Calcarenite Dolomite
VOLCUT_CALLS .%   : 6 Calcarenite Limestone
VOLCUT_CEMENT.%   : 7 Cement
VOLCUT_CHERT .%   : 8 Chert
VOLCUT_CLAY  .%   : 9 Clay
VOLCUT_COAL  .%   : 10 Coal_Lignite_TAR
VOLCUT_CONG  .%   : 11 Conglomerate
VOLCUT_DOL   .%   : 12 Dolomite
VOLCUT_DOLLS .%   : 13 Dolomitic Limestone
VOLCUT_GYP   .%   : 14 Gypsum
VOLCUT_HAL   .%   : 15 Halite
VOLCUT_IGN   .%   : 16 Igneous
VOLCUT_LS    .%   : 17 Limestone
VOLCUT_MARL  .%   : 18 Marl
VOLCUT_SAND  .%   : 19 Sandstone
VOLCUT_SH    .%   : 20 Shale
VOLCUT_SST   .%   : 21 Siltstone
~Params ----------------------------------------------------
~Other -----------------------------------------------------
WellWizard export LAS version 2.0 file.
~ASCII -----------------------------------------------------
# ...
 20436     0     0     0     0     0     0     0     0     0     0     0   100     0     0     0     0     0     0     0     0
 20437     0     0     0     0     0     0     0     0     0     0     0   100     0     0     0     0     0     0     0     0
 20438     0     0     0     0     0     0     0     0     0     0     0   100     0     0     0     0     0     0     0     0
 20439     0     0     0     0     0     0     0     0     0     0     0   100     0     0     0     0     0     0     0     0
 20440     0     0     0     0     0     0     0     0     0     0     0   100     0     0     0     0     0     0     0     0
 20441     0     0     0     0     0     0     0     0     0     0     0   100     0     0     0     0     0     0     0     0
 20442     0     0     0     0     0     0     0     0     0     0     0   100     0     0     0     0     0     0     0     0
 20443     0     0     0     0     0     0     0     0     0     0     0   100     0     0     0     0     0     0     0     0
 20444     0     0     0     0     0     0     0     0     0     0     0   100     0     0     0     0     0     0     0     0
 20445     0     0     0     0     0     0     0     0     0     0     0   100     0     0     0     0     0     0     0     0
 20446     0     0     0     0     0     0     0     0     0     0     0   100     0     0     0     0     0     0     0     0
 20447     0     0     0     0     0     0     0     0     0     0     0   100     0     0     0     0     0     0     0     0
 20448     0     0     0     0     0     0     0     0     0     0     0   100     0     0     0     0     0     0     0     0
 20449     0     0     0     0     0     0     0     0     0     0     0   100     0     0     0     0     0     0     0     0
 20450     0     0     0     0     0     0     0     0     0     0     0   100     0     0     0     0     0     0     0     0
 20451     0     0     0     0     0     0     0     0     0     0     0   100     0     0     0     0     0     0     0     0
 20452     0     0     0     0     0     0     0     0     0     0     0   100     0     0     0     0     0     0     0     0
 20453     0     0     0     0     0     0     0     0     0     0     0   100     0     0     0     0     0     0     0     0
 20454     0     0     0     0     0     0     0     0     0     0     0   100     0     0     0     0     0     0     0     0
 20455     0     0     0     0     0     0     0     0     0     0     0   100     0     0     0     0     0     0     0     0
 20456     0     0     0     0     0     0     0     0     0     0     0   100     0     0     0     0     0     0     0     0
 20457     0     0     0     0     0     0     0     0     0     0     0   100     0     0     0     0     0     0     0     0
 20458     0     0     0     0     0     0     0     0     0     0     0   100     0     0     0     0     0     0     0     0
 20459     0     0     0     0     0     0     0     0     0     0     0   100     0     0     0     0     0     0     0     0
 20460     0     0     0     0     0     0     0     0     0     0     0   100     0     0     0     0     0     0     0     0
 20461     0     0     0     0     0     0     0     0     0     0     0   100     0     0     0     0     0     0     0     0
 20462     0     0     0     0     0     0     0     0     0     0     0   100     0     0     0     0     0     0     0     0
 20463     0     0     0     0     0     0     0     0     0     0     0   100     0     0     0     0     0     0     0     0
 20464     0     0     0     0     0     0     0     0     0     0     0   100     0     0     0     0     0     0     0     0
 20465     0     0     0     0     0     0     0     0     0     0     0   100     0     0     0     0     0     0     0     0
 20466     0     0     0     0     0     0     0     0     0     0     0   100     0     0     0     0     0     0     0     0
 20467     0     0     0     0     0     0     0     0     0     0     0   100     0     0     0     0     0     0     0     0
 20468     0     0     0     0     0     0     0     0     0     0     0   100     0     0     0     0     0     0     0     0
 20469     0     0     0     0     0     0     0     0     0     0     0   100     0     0     0     0     0     0     0     0
 20470     0     0     0     0     0     0     0     0     0     0     0   100     0     0     0     0     0     0     0     0
 20471     0     0     0     0     0     0     0     0     0     0     0   100     0     0     0     0     0     0     0     0
 20472     0     0     0     0     0     0     0     0     0     0     0   100     0     0     0     0     0     0     0     0
 20473     0     0     0     0     0     0     0     0     0     0     0   100     0     0     0     0     0     0     0     0
 20474     0     0     0     0     0     0     0     0     0     0     0   100     0     0     0     0     0     0     0     0
 20475     0     0     0     0     0     0     0     0     0     0     0   100     0     0     0     0     0     0     0     0
 20476     0     0     0     0     0     0     0     0     0     0     0   100     0     0     0     0     0     0     0     0
 20477     0     0     0     0     0     0     0     0     0     0     0   100     0     0     0     0     0     0     0     0
 20478     0     0     0     0     0     0     0     0     0     0     0   100     0     0     0     0     0     0     0     0
 20479     0     0     0     0     0     0     0     0     0     0     0   100     0     0     0     0     0     0     0     0
 20480     0     0     0     0     0     0     0     0     0     0     0   100     0     0     0     0     0     0     0     0
