~Version ---------------------------------------------------
VERS. 2.0 : CWLS log ASCII Standard -VERSION 2.0
WRAP.  NO : ONE LINE PER DEPTH STEP
~Well ------------------------------------------------------
STRT.ft           17790.0 : START DEPTH
STOP.ft           20480.0 : STOP  DEPTH
STEP.ft                 1 : STEP VALUE
NULL.             -999.25 : NULL VALUE
COMP.        SAUDI ARAMCO : COMPANY NAME
WELL.         HWYH_1258_0 : WELL NAME
FLD .              HAWYAH : FIELD NAME
LOC .     189 KM FROM DMG : LOCATION
PROV.                     : PROVINCE
SRVC.               EXLOG : SERVICE COMPANY NAME
DATE.         10_MAR_2022 : DATE
UWI . W000BAB6BF1CAR8480Q : UNIQUE WELL IDENTIFIER
~Curve Information -----------------------------------------
DEPTH        .ft  : 1 Hole Depth
VOLCUT_ANHY  .%   : 2 Anhydrite
VOLCUT_ARGDOL.%   : 3 Argillaceous Dolomite
VOLCUT_ARGLS .%   : 4 Argillaceous Limestone
VOLCUT_CALDOL.%   : 5 Calcarenite Dolomite
VOLCUT_CALLS .%   : 6 Calcarenite Limestone
VOLCUT_CEMENT.%   : 7 Cement
VOLCUT_CHERT .%   : 8 Chert
VOLCUT_CLAY  .%   : 9 Clay
VOLCUT_COAL  .%   : 10 Coal_Lignite_TAR
VOLCUT_CONG  .%   : 11 Conglomerate
VOLCUT_DOL   .%   : 12 Dolomite
VOLCUT_DOLLS .%   : 13 Dolomitic Limestone
VOLCUT_GYP   .%   : 14 Gypsum
VOLCUT_HAL   .%   : 15 Halite
VOLCUT_IGN   .%   : 16 Igneous
VOLCUT_LS    .%   : 17 Limestone
VOLCUT_MARL  .%   : 18 Marl
VOLCUT_SAND  .%   : 19 Sandstone
VOLCUT_SH    .%   : 20 Shale
VOLCUT_SST   .%   : 21 Siltstone
~Params ----------------------------------------------------
~Other -----------------------------------------------------
WellWizard export LAS version 2.0 file.
~ASCII -----------------------------------------------------
# ...
 19365     0     0     0     0     0     0     0     0     0     0     0   100     0     0     0     0     0     0     0     0
 19366     0     0     0     0     0     0     0     0     0     0     0   100     0     0     0     0     0     0     0     0
 19367     0     0     0     0     0     0     0     0     0     0     0   100     0     0     0     0     0     0     0     0
 19368     0     0     0     0     0     0     0     0     0     0     0   100     0     0     0     0     0     0     0     0
 19369     0     0     0     0     0     0     0     0     0     0     0   100     0     0     0     0     0     0     0     0
 19370     0     0     0     0     0     0     0     0     0     0     0   100     0     0     0     0     0     0     0     0
 19371     0     0     0     0     0     0     0     0     0     0     0   100     0     0     0     0     0     0     0     0
 19372     0     0     0     0     0     0     0     0     0     0     0   100     0     0     0     0     0     0     0     0
 19373     0     0     0     0     0     0     0     0     0     0     0   100     0     0     0     0     0     0     0     0
 19374     0     0     0     0     0     0     0     0     0     0     0   100     0     0     0     0     0     0     0     0
 19375     0     0     0     0     0     0     0     0     0     0     0   100     0     0     0     0     0     0     0     0
 19376     0     0     0     0     0     0     0     0     0     0     0   100     0     0     0     0     0     0     0     0
 19377     0     0     0     0     0     0     0     0     0     0     0   100     0     0     0     0     0     0     0     0
 19378     0     0     0     0     0     0     0     0     0     0     0   100     0     0     0     0     0     0     0     0
 19379     0     0     0     0     0     0     0     0     0     0     0   100     0     0     0     0     0     0     0     0
 19380     0     0     0     0     0     0     0     0     0     0     0   100     0     0     0     0     0     0     0     0
 19381     0     0     0     0     0     0     0     0     0     0     0   100     0     0     0     0     0     0     0     0
 19382     0     0     0     0     0     0     0     0     0     0     0   100     0     0     0     0     0     0     0     0
 19383     0     0     0     0     0     0     0     0     0     0     0   100     0     0     0     0     0     0     0     0
 19384     0     0     0     0     0     0     0     0     0     0     0   100     0     0     0     0     0     0     0     0
 19385     0     0     0     0     0     0     0     0     0     0     0   100     0     0     0     0     0     0     0     0
 19386     0     0     0     0     0     0     0     0     0     0     0   100     0     0     0     0     0     0     0     0
 19387     0     0     0     0     0     0     0     0     0     0     0   100     0     0     0     0     0     0     0     0
 19388     0     0     0     0     0     0     0     0     0     0     0   100     0     0     0     0     0     0     0     0
 19389     0     0     0     0     0     0     0     0     0     0     0   100     0     0     0     0     0     0     0     0
 19390     0     0     0     0     0     0     0     0     0     0     0   100     0     0     0     0     0     0     0     0
 19391     0     0     0     0     0     0     0     0     0     0     0   100     0     0     0     0     0     0     0     0
 19392     0     0     0     0     0     0     0     0     0     0     0   100     0     0     0     0     0     0     0     0
 19393     0     0     0     0     0     0     0     0     0     0     0   100     0     0     0     0     0     0     0     0
 19394     0     0     0     0     0     0     0     0     0     0     0   100     0     0     0     0     0     0     0     0
 19395     0     0     0     0     0     0     0     0     0     0     0   100     0     0     0     0     0     0     0     0
 19396     0     0     0     0     0     0     0     0     0     0     0   100     0     0     0     0     0     0     0     0
 19397     0     0     0     0     0     0     0     0     0     0     0   100     0     0     0     0     0     0     0     0
 19398     0     0     0     0     0     0     0     0     0     0     0   100     0     0     0     0     0     0     0     0
 19399     0     0     0     0     0     0     0     0     0     0     0   100     0     0     0     0     0     0     0     0
 19400     0     0     0     0     0     0     0     0     0     0     0   100     0     0     0     0     0     0     0     0
 19401     0     0     0     0     0     0     0     0     0     0     0   100     0     0     0     0     0     0     0     0
 19402     0     0     0     0     0     0     0     0     0     0     0   100     0     0     0     0     0     0     0     0
 19403     0     0     0     0     0     0     0     0     0     0     0   100     0     0     0     0     0     0     0     0
 19404     0     0     0     0     0     0     0     0     0     0     0   100     0     0     0     0     0     0     0     0
 19405     0     0     0     0     0     0     0     0     0     0     0   100     0     0     0     0     0     0     0     0
 19406     0     0     0     0     0     0     0     0     0     0     0   100     0     0     0     0     0     0     0     0
 19407     0     0     0     0     0     0     0     0     0     0     0   100     0     0     0     0     0     0     0     0
 19408     0     0     0     0     0     0     0     0     0     0     0   100     0     0     0     0     0     0     0     0
 19409     0     0     0     0     0     0     0     0     0     0     0   100     0     0     0     0     0     0     0     0
 19410     0     0     0     0     0     0     0     0     0     0     0   100     0     0     0     0     0     0     0     0
 19411     0     0     0     0     0     0     0     0     0     0     0   100     0     0     0     0     0     0     0     0
 19412     0     0     0     0     0     0     0     0     0     0     0   100     0     0     0     0     0     0     0     0
 19413     0     0     0     0     0     0     0     0     0     0     0   100     0     0     0     0     0     0     0     0
 19414     0     0     0     0     0     0     0     0     0     0     0   100     0     0     0     0     0     0     0     0
 19415     0     0     0     0     0     0     0     0     0     0     0   100     0     0     0     0     0     0     0     0
 19416     0     0     0     0     0     0     0     0     0     0     0   100     0     0     0     0     0     0     0     0
 19417     0     0     0     0     0     0     0     0     0     0     0   100     0     0     0     0     0     0     0     0
 19418     0     0     0     0     0     0     0     0     0     0     0   100     0     0     0     0     0     0     0     0
 19419     0     0     0     0     0     0     0     0     0     0     0   100     0     0     0     0     0     0     0     0
 19420     0     0     0     0     0     0     0     0     0     0     0   100     0     0     0     0     0     0     0     0
 19421     0     0     0     0     0     0     0     0     0     0     0   100     0     0     0     0     0     0     0     0
 19422     0     0     0     0     0     0     0     0     0     0     0   100     0     0     0     0     0     0     0     0
 19423     0     0     0     0     0     0     0     0     0     0     0   100     0     0     0     0     0     0     0     0
 19424     0     0     0     0     0     0     0     0     0     0     0   100     0     0     0     0     0     0     0     0
 19425     0     0     0     0     0     0     0     0     0     0     0   100     0     0     0     0     0     0     0     0
 19426     0     0     0     0     0     0     0     0     0     0     0   100     0     0     0     0     0     0     0     0
 19427     0     0     0     0     0     0     0     0     0     0     0   100     0     0     0     0     0     0     0     0
