~Version ---------------------------------------------------
VERS. 2.0 : CWLS log ASCII Standard -VERSION 2.0
WRAP.  NO : ONE LINE PER DEPTH STEP
~Well ------------------------------------------------------
STRT.ft           17790.0 : START DEPTH
STOP.ft           20480.0 : STOP  DEPTH
STEP.ft                 1 : STEP VALUE
NULL.             -999.25 : NULL VALUE
COMP.        SAUDI ARAMCO : COMPANY NAME
WELL.         HWYH_1258_0 : WELL NAME
FLD .              HAWYAH : FIELD NAME
LOC .     189 KM FROM DMG : LOCATION
PROV.                     : PROVINCE
SRVC.               EXLOG : SERVICE COMPANY NAME
DATE.         10_MAR_2022 : DATE
UWI . W000BAB6BF1CAR8480Q : UNIQUE WELL IDENTIFIER
~Curve Information -----------------------------------------
DEPTH        .ft  : 1 Hole Depth
VOLCUT_ANHY  .%   : 2 Anhydrite
VOLCUT_ARGDOL.%   : 3 Argillaceous Dolomite
VOLCUT_ARGLS .%   : 4 Argillaceous Limestone
VOLCUT_CALDOL.%   : 5 Calcarenite Dolomite
VOLCUT_CALLS .%   : 6 Calcarenite Limestone
VOLCUT_CEMENT.%   : 7 Cement
VOLCUT_CHERT .%   : 8 Chert
VOLCUT_CLAY  .%   : 9 Clay
VOLCUT_COAL  .%   : 10 Coal_Lignite_TAR
VOLCUT_CONG  .%   : 11 Conglomerate
VOLCUT_DOL   .%   : 12 Dolomite
VOLCUT_DOLLS .%   : 13 Dolomitic Limestone
VOLCUT_GYP   .%   : 14 Gypsum
VOLCUT_HAL   .%   : 15 Halite
VOLCUT_IGN   .%   : 16 Igneous
VOLCUT_LS    .%   : 17 Limestone
VOLCUT_MARL  .%   : 18 Marl
VOLCUT_SAND  .%   : 19 Sandstone
VOLCUT_SH    .%   : 20 Shale
VOLCUT_SST   .%   : 21 Siltstone
~Params ----------------------------------------------------
~Other -----------------------------------------------------
WellWizard export LAS version 2.0 file.
~ASCII -----------------------------------------------------
# ...
 19743     0     0     0     0     0     0     0     0     0     0     0   100     0     0     0     0     0     0     0     0
 19744     0     0     0     0     0     0     0     0     0     0     0   100     0     0     0     0     0     0     0     0
 19745     0     0     0     0     0     0     0     0     0     0     0   100     0     0     0     0     0     0     0     0
 19746     0     0     0     0     0     0     0     0     0     0     0   100     0     0     0     0     0     0     0     0
 19747     0     0     0     0     0     0     0     0     0     0     0   100     0     0     0     0     0     0     0     0
 19748     0     0     0     0     0     0     0     0     0     0     0   100     0     0     0     0     0     0     0     0
 19749     0     0     0     0     0     0     0     0     0     0     0   100     0     0     0     0     0     0     0     0
 19750     0     0     0     0     0     0     0     0     0     0     0   100     0     0     0     0     0     0     0     0
 19751     0     0     0     0     0     0     0     0     0     0     0   100     0     0     0     0     0     0     0     0
 19752     0     0     0     0     0     0     0     0     0     0     0   100     0     0     0     0     0     0     0     0
 19753     0     0     0     0     0     0     0     0     0     0     0   100     0     0     0     0     0     0     0     0
 19754     0     0     0     0     0     0     0     0     0     0     0   100     0     0     0     0     0     0     0     0
 19755     0     0     0     0     0     0     0     0     0     0     0   100     0     0     0     0     0     0     0     0
 19756     0     0     0     0     0     0     0     0     0     0     0   100     0     0     0     0     0     0     0     0
 19757     0     0     0     0     0     0     0     0     0     0     0   100     0     0     0     0     0     0     0     0
 19758     0     0     0     0     0     0     0     0     0     0     0   100     0     0     0     0     0     0     0     0
 19759     0     0     0     0     0     0     0     0     0     0     0   100     0     0     0     0     0     0     0     0
 19760     0     0     0     0     0     0     0     0     0     0     0   100     0     0     0     0     0     0     0     0
 19761     0     0     0     0     0     0     0     0     0     0     0   100     0     0     0     0     0     0     0     0
 19762     0     0     0     0     0     0     0     0     0     0     0   100     0     0     0     0     0     0     0     0
 19763     0     0     0     0     0     0     0     0     0     0     0   100     0     0     0     0     0     0     0     0
 19764     0     0     0     0     0     0     0     0     0     0     0   100     0     0     0     0     0     0     0     0
 19765     0     0     0     0     0     0     0     0     0     0     0   100     0     0     0     0     0     0     0     0
 19766     0     0     0     0     0     0     0     0     0     0     0   100     0     0     0     0     0     0     0     0
 19767     0     0     0     0     0     0     0     0     0     0     0   100     0     0     0     0     0     0     0     0
 19768     0     0     0     0     0     0     0     0     0     0     0   100     0     0     0     0     0     0     0     0
 19769     0     0     0     0     0     0     0     0     0     0     0   100     0     0     0     0     0     0     0     0
 19770     0     0     0     0     0     0     0     0     0     0     0   100     0     0     0     0     0     0     0     0
 19771     0     0     0     0     0     0     0     0     0     0     0   100     0     0     0     0     0     0     0     0
 19772     0     0     0     0     0     0     0     0     0     0     0   100     0     0     0     0     0     0     0     0
 19773     0     0     0     0     0     0     0     0     0     0     0   100     0     0     0     0     0     0     0     0
 19774     0     0     0     0     0     0     0     0     0     0     0   100     0     0     0     0     0     0     0     0
 19775     0     0     0     0     0     0     0     0     0     0     0   100     0     0     0     0     0     0     0     0
 19776     0     0     0     0     0     0     0     0     0     0     0   100     0     0     0     0     0     0     0     0
 19777     0     0     0     0     0     0     0     0     0     0     0   100     0     0     0     0     0     0     0     0
 19778     0     0     0     0     0     0     0     0     0     0     0   100     0     0     0     0     0     0     0     0
 19779     0     0     0     0     0     0     0     0     0     0     0   100     0     0     0     0     0     0     0     0
 19780     0     0     0     0     0     0     0     0     0     0     0   100     0     0     0     0     0     0     0     0
 19781     0     0     0     0     0     0     0     0     0     0     0   100     0     0     0     0     0     0     0     0
 19782     0     0     0     0     0     0     0     0     0     0     0   100     0     0     0     0     0     0     0     0
 19783     0     0     0     0     0     0     0     0     0     0     0   100     0     0     0     0     0     0     0     0
 19784     0     0     0     0     0     0     0     0     0     0     0   100     0     0     0     0     0     0     0     0
 19785     0     0     0     0     0     0     0     0     0     0     0   100     0     0     0     0     0     0     0     0
 19786     0     0     0     0     0     0     0     0     0     0     0   100     0     0     0     0     0     0     0     0
 19787     0     0     0     0     0     0     0     0     0     0     0   100     0     0     0     0     0     0     0     0
 19788     0     0     0     0     0     0     0     0     0     0     0   100     0     0     0     0     0     0     0     0
 19789     0     0     0     0     0     0     0     0     0     0     0   100     0     0     0     0     0     0     0     0
 19790     0     0     0     0     0     0     0     0     0     0     0   100     0     0     0     0     0     0     0     0
 19791     0     0     0     0     0     0     0     0     0     0     0   100     0     0     0     0     0     0     0     0
 19792     0     0     0     0     0     0     0     0     0     0     0   100     0     0     0     0     0     0     0     0
 19793     0     0     0     0     0     0     0     0     0     0     0   100     0     0     0     0     0     0     0     0
 19794     0     0     0     0     0     0     0     0     0     0     0   100     0     0     0     0     0     0     0     0
 19795     0     0     0     0     0     0     0     0     0     0     0   100     0     0     0     0     0     0     0     0
 19796     0     0     0     0     0     0     0     0     0     0     0   100     0     0     0     0     0     0     0     0
 19797     0     0     0     0     0     0     0     0     0     0     0   100     0     0     0     0     0     0     0     0
 19798     0     0     0     0     0     0     0     0     0     0     0   100     0     0     0     0     0     0     0     0
 19799     0     0     0     0     0     0     0     0     0     0     0   100     0     0     0     0     0     0     0     0
 19800     0     0     0     0     0     0     0     0     0     0     0   100     0     0     0     0     0     0     0     0
 19801     0     0     0     0     0     0     0     0     0     0     0   100     0     0     0     0     0     0     0     0
 19802     0     0     0     0     0     0     0     0     0     0     0   100     0     0     0     0     0     0     0     0
 19803     0     0     0     0     0     0     0     0     0     0     0   100     0     0     0     0     0     0     0     0
 19804     0     0     0     0     0     0     0     0     0     0     0   100     0     0     0     0     0     0     0     0
 19805     0     0     0     0     0     0     0     0     0     0     0   100     0     0     0     0     0     0     0     0
