~Version ---------------------------------------------------
VERS. 2.0 : CWLS log ASCII Standard -VERSION 2.0
WRAP.  NO : ONE LINE PER DEPTH STEP
~Well ------------------------------------------------------
STRT.ft           17790.0 : START DEPTH
STOP.ft           20480.0 : STOP  DEPTH
STEP.ft                 1 : STEP VALUE
NULL.             -999.25 : NULL VALUE
COMP.        SAUDI ARAMCO : COMPANY NAME
WELL.         HWYH_1258_0 : WELL NAME
FLD .              HAWYAH : FIELD NAME
LOC .     189 KM FROM DMG : LOCATION
PROV.                     : PROVINCE
SRVC.               EXLOG : SERVICE COMPANY NAME
DATE.         10_MAR_2022 : DATE
UWI . W000BAB6BF1CAR8480Q : UNIQUE WELL IDENTIFIER
~Curve Information -----------------------------------------
DEPTH        .ft  : 1 Hole Depth
VOLCUT_ANHY  .%   : 2 Anhydrite
VOLCUT_ARGDOL.%   : 3 Argillaceous Dolomite
VOLCUT_ARGLS .%   : 4 Argillaceous Limestone
VOLCUT_CALDOL.%   : 5 Calcarenite Dolomite
VOLCUT_CALLS .%   : 6 Calcarenite Limestone
VOLCUT_CEMENT.%   : 7 Cement
VOLCUT_CHERT .%   : 8 Chert
VOLCUT_CLAY  .%   : 9 Clay
VOLCUT_COAL  .%   : 10 Coal_Lignite_TAR
VOLCUT_CONG  .%   : 11 Conglomerate
VOLCUT_DOL   .%   : 12 Dolomite
VOLCUT_DOLLS .%   : 13 Dolomitic Limestone
VOLCUT_GYP   .%   : 14 Gypsum
VOLCUT_HAL   .%   : 15 Halite
VOLCUT_IGN   .%   : 16 Igneous
VOLCUT_LS    .%   : 17 Limestone
VOLCUT_MARL  .%   : 18 Marl
VOLCUT_SAND  .%   : 19 Sandstone
VOLCUT_SH    .%   : 20 Shale
VOLCUT_SST   .%   : 21 Siltstone
~Params ----------------------------------------------------
~Other -----------------------------------------------------
WellWizard export LAS version 2.0 file.
~ASCII -----------------------------------------------------
 17790     0     0     0     0     0     0     0     0     0     0     0     0     0     0     0     0     0     0     0     0
 17791     0     0     0     0     0     0     0     0     0     0     0   100     0     0     0     0     0     0     0     0
 17792     0     0     0     0     0     0     0     0     0     0     0   100     0     0     0     0     0     0     0     0
 17793     0     0     0     0     0     0     0     0     0     0     0   100     0     0     0     0     0     0     0     0
 17794     0     0     0     0     0     0     0     0     0     0     0   100     0     0     0     0     0     0     0     0
 17795     0     0     0     0     0     0     0     0     0     0     0   100     0     0     0     0     0     0     0     0
 17796     0     0     0     0     0     0     0     0     0     0     0   100     0     0     0     0     0     0     0     0
 17797     0     0     0     0     0     0     0     0     0     0     0   100     0     0     0     0     0     0     0     0
 17798     0     0     0     0     0     0     0     0     0     0     0   100     0     0     0     0     0     0     0     0
 17799     0     0     0     0     0     0     0     0     0     0     0   100     0     0     0     0     0     0     0     0
 17800     0     0     0     0     0     0     0     0     0     0     0   100     0     0     0     0     0     0     0     0
 17801     0     0     0     0     0     0     0     0     0     0     0   100     0     0     0     0     0     0     0     0
 17802     0     0     0     0     0     0     0     0     0     0     0   100     0     0     0     0     0     0     0     0
 17803     0     0     0     0     0     0     0     0     0     0     0   100     0     0     0     0     0     0     0     0
 17804     0     0     0     0     0     0     0     0     0     0     0   100     0     0     0     0     0     0     0     0
 17805     0     0     0     0     0     0     0     0     0     0     0   100     0     0     0     0     0     0     0     0
 17806     0     0     0     0     0     0     0     0     0     0     0   100     0     0     0     0     0     0     0     0
 17807     0     0     0     0     0     0     0     0     0     0     0   100     0     0     0     0     0     0     0     0
 17808     0     0     0     0     0     0     0     0     0     0     0   100     0     0     0     0     0     0     0     0
 17809     0     0     0     0     0     0     0     0     0     0     0   100     0     0     0     0     0     0     0     0
 17810     0     0     0     0     0     0     0     0     0     0     0   100     0     0     0     0     0     0     0     0
 17811     0     0     0     0     0     0     0     0     0     0     0   100     0     0     0     0     0     0     0     0
 17812     0     0     0     0     0     0     0     0     0     0     0   100     0     0     0     0     0     0     0     0
 17813     0     0     0     0     0     0     0     0     0     0     0   100     0     0     0     0     0     0     0     0
 17814     0     0     0     0     0     0     0     0     0     0     0   100     0     0     0     0     0     0     0     0
 17815     0     0     0     0     0     0     0     0     0     0     0   100     0     0     0     0     0     0     0     0
 17816     0     0     0     0     0     0     0     0     0     0     0   100     0     0     0     0     0     0     0     0
 17817     0     0     0     0     0     0     0     0     0     0     0   100     0     0     0     0     0     0     0     0
 17818     0     0     0     0     0     0     0     0     0     0     0   100     0     0     0     0     0     0     0     0
 17819     0     0     0     0     0     0     0     0     0     0     0   100     0     0     0     0     0     0     0     0
 17820     0     0     0     0     0     0     0     0     0     0     0   100     0     0     0     0     0     0     0     0
 17821     0     0     0     0     0     0     0     0     0     0     0   100     0     0     0     0     0     0     0     0
 17822     0     0     0     0     0     0     0     0     0     0     0   100     0     0     0     0     0     0     0     0
 17823     0     0     0     0     0     0     0     0     0     0     0   100     0     0     0     0     0     0     0     0
 17824     0     0     0     0     0     0     0     0     0     0     0   100     0     0     0     0     0     0     0     0
 17825     0     0     0     0     0     0     0     0     0     0     0   100     0     0     0     0     0     0     0     0
 17826     0     0     0     0     0     0     0     0     0     0     0   100     0     0     0     0     0     0     0     0
 17827     0     0     0     0     0     0     0     0     0     0     0   100     0     0     0     0     0     0     0     0
 17828     0     0     0     0     0     0     0     0     0     0     0   100     0     0     0     0     0     0     0     0
 17829     0     0     0     0     0     0     0     0     0     0     0   100     0     0     0     0     0     0     0     0
 17830     0     0     0     0     0     0     0     0     0     0     0   100     0     0     0     0     0     0     0     0
 17831     0     0     0     0     0     0     0     0     0     0     0   100     0     0     0     0     0     0     0     0
 17832     0     0     0     0     0     0     0     0     0     0     0   100     0     0     0     0     0     0     0     0
 17833     0     0     0     0     0     0     0     0     0     0     0   100     0     0     0     0     0     0     0     0
 17834     0     0     0     0     0     0     0     0     0     0     0   100     0     0     0     0     0     0     0     0
 17835     0     0     0     0     0     0     0     0     0     0     0   100     0     0     0     0     0     0     0     0
 17836     0     0     0     0     0     0     0     0     0     0     0   100     0     0     0     0     0     0     0     0
 17837     0     0     0     0     0     0     0     0     0     0     0   100     0     0     0     0     0     0     0     0
 17838     0     0     0     0     0     0     0     0     0     0     0   100     0     0     0     0     0     0     0     0
 17839     0     0     0     0     0     0     0     0     0     0     0   100     0     0     0     0     0     0     0     0
 17840     0     0     0     0     0     0     0     0     0     0     0   100     0     0     0     0     0     0     0     0
 17841     0     0     0     0     0     0     0     0     0     0     0   100     0     0     0     0     0     0     0     0
 17842     0     0     0     0     0     0     0     0     0     0     0   100     0     0     0     0     0     0     0     0
 17843     0     0     0     0     0     0     0     0     0     0     0   100     0     0     0     0     0     0     0     0
 17844     0     0     0     0     0     0     0     0     0     0     0   100     0     0     0     0     0     0     0     0
 17845     0     0     0     0     0     0     0     0     0     0     0   100     0     0     0     0     0     0     0     0
 17846     0     0     0     0     0     0     0     0     0     0     0   100     0     0     0     0     0     0     0     0
 17847     0     0     0     0     0     0     0     0     0     0     0   100     0     0     0     0     0     0     0     0
 17848     0     0     0     0     0     0     0     0     0     0     0   100     0     0     0     0     0     0     0     0
 17849     0     0     0     0     0     0     0     0     0     0     0   100     0     0     0     0     0     0     0     0
 17850     0     0     0     0     0     0     0     0     0     0     0   100     0     0     0     0     0     0     0     0
 17851     0     0     0     0     0     0     0     0     0     0     0   100     0     0     0     0     0     0     0     0
 17852     0     0     0     0     0     0     0     0     0     0     0   100     0     0     0     0     0     0     0     0
