~Version ---------------------------------------------------
VERS. 2.0 : CWLS log ASCII Standard -VERSION 2.0
WRAP.  NO : ONE LINE PER DEPTH STEP
~Well ------------------------------------------------------
STRT.ft           17790.0 : START DEPTH
STOP.ft           20480.0 : STOP  DEPTH
STEP.ft                 1 : STEP VALUE
NULL.             -999.25 : NULL VALUE
COMP.        SAUDI ARAMCO : COMPANY NAME
WELL.         HWYH_1258_0 : WELL NAME
FLD .              HAWYAH : FIELD NAME
LOC .     189 KM FROM DMG : LOCATION
PROV.                     : PROVINCE
SRVC.               EXLOG : SERVICE COMPANY NAME
DATE.         10_MAR_2022 : DATE
UWI . W000BAB6BF1CAR8480Q : UNIQUE WELL IDENTIFIER
~Curve Information -----------------------------------------
DEPTH        .ft  : 1 Hole Depth
VOLCUT_ANHY  .%   : 2 Anhydrite
VOLCUT_ARGDOL.%   : 3 Argillaceous Dolomite
VOLCUT_ARGLS .%   : 4 Argillaceous Limestone
VOLCUT_CALDOL.%   : 5 Calcarenite Dolomite
VOLCUT_CALLS .%   : 6 Calcarenite Limestone
VOLCUT_CEMENT.%   : 7 Cement
VOLCUT_CHERT .%   : 8 Chert
VOLCUT_CLAY  .%   : 9 Clay
VOLCUT_COAL  .%   : 10 Coal_Lignite_TAR
VOLCUT_CONG  .%   : 11 Conglomerate
VOLCUT_DOL   .%   : 12 Dolomite
VOLCUT_DOLLS .%   : 13 Dolomitic Limestone
VOLCUT_GYP   .%   : 14 Gypsum
VOLCUT_HAL   .%   : 15 Halite
VOLCUT_IGN   .%   : 16 Igneous
VOLCUT_LS    .%   : 17 Limestone
VOLCUT_MARL  .%   : 18 Marl
VOLCUT_SAND  .%   : 19 Sandstone
VOLCUT_SH    .%   : 20 Shale
VOLCUT_SST   .%   : 21 Siltstone
~Params ----------------------------------------------------
~Other -----------------------------------------------------
WellWizard export LAS version 2.0 file.
~ASCII -----------------------------------------------------
# ...
 18672     0     0     0     0     0     0     0     0     0     0     0   100     0     0     0     0     0     0     0     0
 18673     0     0     0     0     0     0     0     0     0     0     0   100     0     0     0     0     0     0     0     0
 18674     0     0     0     0     0     0     0     0     0     0     0   100     0     0     0     0     0     0     0     0
 18675     0     0     0     0     0     0     0     0     0     0     0   100     0     0     0     0     0     0     0     0
 18676     0     0     0     0     0     0     0     0     0     0     0   100     0     0     0     0     0     0     0     0
 18677     0     0     0     0     0     0     0     0     0     0     0   100     0     0     0     0     0     0     0     0
 18678     0     0     0     0     0     0     0     0     0     0     0   100     0     0     0     0     0     0     0     0
 18679     0     0     0     0     0     0     0     0     0     0     0   100     0     0     0     0     0     0     0     0
 18680     0     0     0     0     0     0     0     0     0     0     0   100     0     0     0     0     0     0     0     0
 18681     0     0     0     0     0     0     0     0     0     0     0   100     0     0     0     0     0     0     0     0
 18682     0     0     0     0     0     0     0     0     0     0     0   100     0     0     0     0     0     0     0     0
 18683     0     0     0     0     0     0     0     0     0     0     0   100     0     0     0     0     0     0     0     0
 18684     0     0     0     0     0     0     0     0     0     0     0   100     0     0     0     0     0     0     0     0
 18685     0     0     0     0     0     0     0     0     0     0     0   100     0     0     0     0     0     0     0     0
 18686     0     0     0     0     0     0     0     0     0     0     0   100     0     0     0     0     0     0     0     0
 18687     0     0     0     0     0     0     0     0     0     0     0   100     0     0     0     0     0     0     0     0
 18688     0     0     0     0     0     0     0     0     0     0     0   100     0     0     0     0     0     0     0     0
 18689     0     0     0     0     0     0     0     0     0     0     0   100     0     0     0     0     0     0     0     0
 18690     0     0     0     0     0     0     0     0     0     0     0   100     0     0     0     0     0     0     0     0
 18691     0     0     0     0     0     0     0     0     0     0     0   100     0     0     0     0     0     0     0     0
 18692     0     0     0     0     0     0     0     0     0     0     0   100     0     0     0     0     0     0     0     0
 18693     0     0     0     0     0     0     0     0     0     0     0   100     0     0     0     0     0     0     0     0
 18694     0     0     0     0     0     0     0     0     0     0     0   100     0     0     0     0     0     0     0     0
 18695     0     0     0     0     0     0     0     0     0     0     0   100     0     0     0     0     0     0     0     0
 18696     0     0     0     0     0     0     0     0     0     0     0   100     0     0     0     0     0     0     0     0
 18697     0     0     0     0     0     0     0     0     0     0     0   100     0     0     0     0     0     0     0     0
 18698     0     0     0     0     0     0     0     0     0     0     0   100     0     0     0     0     0     0     0     0
 18699     0     0     0     0     0     0     0     0     0     0     0   100     0     0     0     0     0     0     0     0
 18700     0     0     0     0     0     0     0     0     0     0     0   100     0     0     0     0     0     0     0     0
 18701     0     0     0     0     0     0     0     0     0     0     0   100     0     0     0     0     0     0     0     0
 18702     0     0     0     0     0     0     0     0     0     0     0   100     0     0     0     0     0     0     0     0
 18703     0     0     0     0     0     0     0     0     0     0     0   100     0     0     0     0     0     0     0     0
 18704     0     0     0     0     0     0     0     0     0     0     0   100     0     0     0     0     0     0     0     0
 18705     0     0     0     0     0     0     0     0     0     0     0   100     0     0     0     0     0     0     0     0
 18706     0     0     0     0     0     0     0     0     0     0     0   100     0     0     0     0     0     0     0     0
 18707     0     0     0     0     0     0     0     0     0     0     0   100     0     0     0     0     0     0     0     0
 18708     0     0     0     0     0     0     0     0     0     0     0   100     0     0     0     0     0     0     0     0
 18709     0     0     0     0     0     0     0     0     0     0     0   100     0     0     0     0     0     0     0     0
 18710     0     0     0     0     0     0     0     0     0     0     0   100     0     0     0     0     0     0     0     0
 18711     0     0     0     0     0     0     0     0     0     0     0   100     0     0     0     0     0     0     0     0
 18712     0     0     0     0     0     0     0     0     0     0     0   100     0     0     0     0     0     0     0     0
 18713     0     0     0     0     0     0     0     0     0     0     0   100     0     0     0     0     0     0     0     0
 18714     0     0     0     0     0     0     0     0     0     0     0   100     0     0     0     0     0     0     0     0
 18715     0     0     0     0     0     0     0     0     0     0     0   100     0     0     0     0     0     0     0     0
 18716     0     0     0     0     0     0     0     0     0     0     0   100     0     0     0     0     0     0     0     0
 18717     0     0     0     0     0     0     0     0     0     0     0   100     0     0     0     0     0     0     0     0
 18718     0     0     0     0     0     0     0     0     0     0     0   100     0     0     0     0     0     0     0     0
 18719     0     0     0     0     0     0     0     0     0     0     0   100     0     0     0     0     0     0     0     0
 18720     0     0     0     0     0     0     0     0     0     0     0   100     0     0     0     0     0     0     0     0
 18721     0     0     0     0     0     0     0     0     0     0     0   100     0     0     0     0     0     0     0     0
 18722     0     0     0     0     0     0     0     0     0     0     0   100     0     0     0     0     0     0     0     0
 18723     0     0     0     0     0     0     0     0     0     0     0   100     0     0     0     0     0     0     0     0
 18724     0     0     0     0     0     0     0     0     0     0     0   100     0     0     0     0     0     0     0     0
 18725     0     0     0     0     0     0     0     0     0     0     0   100     0     0     0     0     0     0     0     0
 18726     0     0     0     0     0     0     0     0     0     0     0   100     0     0     0     0     0     0     0     0
 18727     0     0     0     0     0     0     0     0     0     0     0   100     0     0     0     0     0     0     0     0
 18728     0     0     0     0     0     0     0     0     0     0     0   100     0     0     0     0     0     0     0     0
 18729     0     0     0     0     0     0     0     0     0     0     0   100     0     0     0     0     0     0     0     0
 18730     0     0     0     0     0     0     0     0     0     0     0   100     0     0     0     0     0     0     0     0
 18731     0     0     0     0     0     0     0     0     0     0     0   100     0     0     0     0     0     0     0     0
 18732     0     0     0     0     0     0     0     0     0     0     0   100     0     0     0     0     0     0     0     0
 18733     0     0     0     0     0     0     0     0     0     0     0   100     0     0     0     0     0     0     0     0
 18734     0     0     0     0     0     0     0     0     0     0     0   100     0     0     0     0     0     0     0     0
