~Version ---------------------------------------------------
VERS. 2.0 : CWLS log ASCII Standard -VERSION 2.0
WRAP.  NO : ONE LINE PER DEPTH STEP
~Well ------------------------------------------------------
STRT.ft           17790.0 : START DEPTH
STOP.ft           20480.0 : STOP  DEPTH
STEP.ft                 1 : STEP VALUE
NULL.             -999.25 : NULL VALUE
COMP.        SAUDI ARAMCO : COMPANY NAME
WELL.         HWYH_1258_0 : WELL NAME
FLD .              HAWYAH : FIELD NAME
LOC .     189 KM FROM DMG : LOCATION
PROV.                     : PROVINCE
SRVC.               EXLOG : SERVICE COMPANY NAME
DATE.         10_MAR_2022 : DATE
UWI . W000BAB6BF1CAR8480Q : UNIQUE WELL IDENTIFIER
~Curve Information -----------------------------------------
DEPTH        .ft  : 1 Hole Depth
VOLCUT_ANHY  .%   : 2 Anhydrite
VOLCUT_ARGDOL.%   : 3 Argillaceous Dolomite
VOLCUT_ARGLS .%   : 4 Argillaceous Limestone
VOLCUT_CALDOL.%   : 5 Calcarenite Dolomite
VOLCUT_CALLS .%   : 6 Calcarenite Limestone
VOLCUT_CEMENT.%   : 7 Cement
VOLCUT_CHERT .%   : 8 Chert
VOLCUT_CLAY  .%   : 9 Clay
VOLCUT_COAL  .%   : 10 Coal_Lignite_TAR
VOLCUT_CONG  .%   : 11 Conglomerate
VOLCUT_DOL   .%   : 12 Dolomite
VOLCUT_DOLLS .%   : 13 Dolomitic Limestone
VOLCUT_GYP   .%   : 14 Gypsum
VOLCUT_HAL   .%   : 15 Halite
VOLCUT_IGN   .%   : 16 Igneous
VOLCUT_LS    .%   : 17 Limestone
VOLCUT_MARL  .%   : 18 Marl
VOLCUT_SAND  .%   : 19 Sandstone
VOLCUT_SH    .%   : 20 Shale
VOLCUT_SST   .%   : 21 Siltstone
~Params ----------------------------------------------------
~Other -----------------------------------------------------
WellWizard export LAS version 2.0 file.
~ASCII -----------------------------------------------------
# ...
 18168     0     0     0     0     0     0     0     0     0     0     0   100     0     0     0     0     0     0     0     0
 18169     0     0     0     0     0     0     0     0     0     0     0   100     0     0     0     0     0     0     0     0
 18170     0     0     0     0     0     0     0     0     0     0     0   100     0     0     0     0     0     0     0     0
 18171     0     0     0     0     0     0     0     0     0     0     0   100     0     0     0     0     0     0     0     0
 18172     0     0     0     0     0     0     0     0     0     0     0   100     0     0     0     0     0     0     0     0
 18173     0     0     0     0     0     0     0     0     0     0     0   100     0     0     0     0     0     0     0     0
 18174     0     0     0     0     0     0     0     0     0     0     0   100     0     0     0     0     0     0     0     0
 18175     0     0     0     0     0     0     0     0     0     0     0   100     0     0     0     0     0     0     0     0
 18176     0     0     0     0     0     0     0     0     0     0     0   100     0     0     0     0     0     0     0     0
 18177     0     0     0     0     0     0     0     0     0     0     0   100     0     0     0     0     0     0     0     0
 18178     0     0     0     0     0     0     0     0     0     0     0   100     0     0     0     0     0     0     0     0
 18179     0     0     0     0     0     0     0     0     0     0     0   100     0     0     0     0     0     0     0     0
 18180     0     0     0     0     0     0     0     0     0     0     0   100     0     0     0     0     0     0     0     0
 18181     0     0     0     0     0     0     0     0     0     0     0   100     0     0     0     0     0     0     0     0
 18182     0     0     0     0     0     0     0     0     0     0     0   100     0     0     0     0     0     0     0     0
 18183     0     0     0     0     0     0     0     0     0     0     0   100     0     0     0     0     0     0     0     0
 18184     0     0     0     0     0     0     0     0     0     0     0   100     0     0     0     0     0     0     0     0
 18185     0     0     0     0     0     0     0     0     0     0     0   100     0     0     0     0     0     0     0     0
 18186     0     0     0     0     0     0     0     0     0     0     0   100     0     0     0     0     0     0     0     0
 18187     0     0     0     0     0     0     0     0     0     0     0   100     0     0     0     0     0     0     0     0
 18188     0     0     0     0     0     0     0     0     0     0     0   100     0     0     0     0     0     0     0     0
 18189     0     0     0     0     0     0     0     0     0     0     0   100     0     0     0     0     0     0     0     0
 18190     0     0     0     0     0     0     0     0     0     0     0   100     0     0     0     0     0     0     0     0
 18191     0     0     0     0     0     0     0     0     0     0     0   100     0     0     0     0     0     0     0     0
 18192     0     0     0     0     0     0     0     0     0     0     0   100     0     0     0     0     0     0     0     0
 18193     0     0     0     0     0     0     0     0     0     0     0   100     0     0     0     0     0     0     0     0
 18194     0     0     0     0     0     0     0     0     0     0     0   100     0     0     0     0     0     0     0     0
 18195     0     0     0     0     0     0     0     0     0     0     0   100     0     0     0     0     0     0     0     0
 18196     0     0     0     0     0     0     0     0     0     0     0   100     0     0     0     0     0     0     0     0
 18197     0     0     0     0     0     0     0     0     0     0     0   100     0     0     0     0     0     0     0     0
 18198     0     0     0     0     0     0     0     0     0     0     0   100     0     0     0     0     0     0     0     0
 18199     0     0     0     0     0     0     0     0     0     0     0   100     0     0     0     0     0     0     0     0
 18200     0     0     0     0     0     0     0     0     0     0     0   100     0     0     0     0     0     0     0     0
 18201     0     0     0     0     0     0     0     0     0     0     0   100     0     0     0     0     0     0     0     0
 18202     0     0     0     0     0     0     0     0     0     0     0   100     0     0     0     0     0     0     0     0
 18203     0     0     0     0     0     0     0     0     0     0     0   100     0     0     0     0     0     0     0     0
 18204     0     0     0     0     0     0     0     0     0     0     0   100     0     0     0     0     0     0     0     0
 18205     0     0     0     0     0     0     0     0     0     0     0   100     0     0     0     0     0     0     0     0
 18206     0     0     0     0     0     0     0     0     0     0     0   100     0     0     0     0     0     0     0     0
 18207     0     0     0     0     0     0     0     0     0     0     0   100     0     0     0     0     0     0     0     0
 18208     0     0     0     0     0     0     0     0     0     0     0   100     0     0     0     0     0     0     0     0
 18209     0     0     0     0     0     0     0     0     0     0     0   100     0     0     0     0     0     0     0     0
 18210     0     0     0     0     0     0     0     0     0     0     0   100     0     0     0     0     0     0     0     0
 18211     0     0     0     0     0     0     0     0     0     0     0   100     0     0     0     0     0     0     0     0
 18212     0     0     0     0     0     0     0     0     0     0     0   100     0     0     0     0     0     0     0     0
 18213     0     0     0     0     0     0     0     0     0     0     0   100     0     0     0     0     0     0     0     0
 18214     0     0     0     0     0     0     0     0     0     0     0   100     0     0     0     0     0     0     0     0
 18215     0     0     0     0     0     0     0     0     0     0     0   100     0     0     0     0     0     0     0     0
 18216     0     0     0     0     0     0     0     0     0     0     0   100     0     0     0     0     0     0     0     0
 18217     0     0     0     0     0     0     0     0     0     0     0   100     0     0     0     0     0     0     0     0
 18218     0     0     0     0     0     0     0     0     0     0     0   100     0     0     0     0     0     0     0     0
 18219     0     0     0     0     0     0     0     0     0     0     0   100     0     0     0     0     0     0     0     0
 18220     0     0     0     0     0     0     0     0     0     0     0   100     0     0     0     0     0     0     0     0
 18221     0     0     0     0     0     0     0     0     0     0     0   100     0     0     0     0     0     0     0     0
 18222     0     0     0     0     0     0     0     0     0     0     0   100     0     0     0     0     0     0     0     0
 18223     0     0     0     0     0     0     0     0     0     0     0   100     0     0     0     0     0     0     0     0
 18224     0     0     0     0     0     0     0     0     0     0     0   100     0     0     0     0     0     0     0     0
 18225     0     0     0     0     0     0     0     0     0     0     0   100     0     0     0     0     0     0     0     0
 18226     0     0     0     0     0     0     0     0     0     0     0   100     0     0     0     0     0     0     0     0
 18227     0     0     0     0     0     0     0     0     0     0     0   100     0     0     0     0     0     0     0     0
 18228     0     0     0     0     0     0     0     0     0     0     0   100     0     0     0     0     0     0     0     0
 18229     0     0     0     0     0     0     0     0     0     0     0   100     0     0     0     0     0     0     0     0
 18230     0     0     0     0     0     0     0     0     0     0     0   100     0     0     0     0     0     0     0     0
